Unnamed: 0.4,사업장명,인허가일자,영업상태명,폐업일자,지번주소,도로명주소,좌표정보(X),좌표정보(Y),소재지면적,가격대,위도,경도,지하철역과거리,주변저가형카페수,주변중저가형카페수,주변고가형카페수,주변평균월세,주변유동인구수
0,메가엠지씨커피 성북보문점,2024-04-12,영업/정상,,서울특별시 성북구 보문동4가 17,"서울특별시 성북구 보문로 88, 1층 (보문동4가)",201768.9546,453426.8416,63.47,저가,37.58314185,127.0179248,0.332505622,0,0,0,52.36666667,4089566
1,메가엠지씨커피 대치포스코점,2024-04-12,영업/정상,,서울특별시 강남구 대치동 891-44 노벨과개미,"서울특별시 강남구 테헤란로78길 16, 노벨과개미 지상2층 (대치동)",204828.0026,444777.6186,54.41,저가,37.50520234,127.0525015,0.545610334,0,1,4,69.35555556,21670795
2,컴포즈커피 보라매중앙점,2024-04-11,영업/정상,,서울특별시 동작구 신대방동 362-29,"서울특별시 동작구 여의대방로24길 24, 1층 (신대방동)",192991.4808,443965.2632,69.22,저가,37.49786824,126.9186424,0.254425742,1,1,0,26.58888889,230343
3,메가엠지씨커피 압구정로데오역점,2023-03-24,영업/정상,,서울특별시 강남구 신사동 661-1,"서울특별시 강남구 압구정로 338, 지상1층 3호 (신사동)",203368.9242,447298.4584,40,저가,37.52792138,127.0360112,0.835727947,1,1,4,46.7,465419
4,메가엠지씨커피 금천롯데캐슬,2019-03-18,영업/정상,,서울특별시 금천구 독산동 1147 금천롯데캐슬골드파크1차아파트,"서울특별시 금천구 벚꽃로 40, 113동 107호 (독산동, 금천롯데캐슬골드파크1차아파트)",190592.7346,439737.221,39.87,저가,37.45975209,126.8915704,2.350549409,2,0,2,70.85555556,664985
5,빽다방 빵연구소 연세대SK국제학사점,2022-06-21,폐업,2023-02-28,서울특별시 서대문구 신촌동 134 연세대학교,"서울특별시 서대문구 연세로 50, 연세대학교 SK국제학사 지2층 (신촌동)",194584.9592,451381.5855,186.5,저가,37.56469964,126.936607,0.980918208,1,3,3,45.63333333,394961
6,메가엠지씨커피 중곡대원점,2023-03-27,영업/정상,,서울특별시 광진구 중곡동 18-74 경동빌딩 103호,"서울특별시 광진구 용마산로 114, 경동빌딩 1층 103호 (중곡동)",207626.7596,451292.0421,89.2,저가,37.56387813,127.0842215,0.148540485,0,1,2,31.98888889,3011751
7,메가엠지씨커피 청구신당점,2023-03-27,영업/정상,,서울특별시 중구 신당동 291-29,"서울특별시 중구 다산로36길 36, 1층 1호 (신당동)",201422.0782,451064.5653,56,저가,37.56185862,127.0139933,0.168383882,1,0,0,44.73333333,3799497
8,컴포즈커피 명지대정문점,2023-02-16,영업/정상,,서울특별시 서대문구 남가좌동 324-1,"서울특별시 서대문구 거북골로 21, 1층 일부 (남가좌동)",193303.8022,453090.9395,35,저가,37.58009219,126.9220903,1.18812348,2,1,2,51.66666667,6789722
9,메가엠지씨커피 노원월계초점,2023-10-30,영업/정상,,서울특별시 노원구 월계동 845-5 성진빌딩,"서울특별시 노원구 월계로45길 37, 성진빌딩 1층 (월계동)",204376.4144,458295.2252,82.5,저가,37.62699661,127.0474737,1.88161072,1,2,0,36.16666667,951890
10,컴포즈커피 용산아스테리움점,2023-06-01,영업/정상,,서울특별시 용산구 한강로2가 419 아스테리움 용산,"서울특별시 용산구 한강대로30길 25, 제비동 제지1층 114호 (한강로2가, 아스테리움 용산)",197177.4418,447264.4448,39.01,저가,37.52761632,126.9659665,0.260243982,2,1,3,32.74444444,8378097
11,메가엠지씨커피 송파문정공원점,2023-03-29,영업/정상,,서울특별시 송파구 문정동 116-4 도은빌딩,"서울특별시 송파구 송이로 239, 도은빌딩 1층 3호 (문정동)",211591.0538,442873.3517,32.4,저가,37.48798531,127.1289593,0.656436915,0,0,0,30.91111111,3734882
12,컴포즈커피 명동길점,2024-02-19,영업/정상,,서울특별시 중구 명동1가 45-1,"서울특별시 중구 명동7길 18, 1층 (명동1가)",198556.1416,451362.7705,23,저가,37.56454518,126.9815554,0.181693086,4,4,35,84.78888889,3421674
13,메가엠지씨커피 방배카페거리점,2023-02-16,폐업,2023-05-08,서울특별시 서초구 방배동 760-2 2동 1층 314호,"서울특별시 서초구 방배중앙로 188, 2동 1층 314호 (방배동)",198675.2678,443752.7123,48,저가,37.49597919,126.9829181,0.807656291,0,0,4,43.78888889,4907819
14,컴포즈커피 마포광흥창점(COMPOSECOFFEE),2023-04-26,영업/정상,,서울특별시 마포구 구수동 6-8,"서울특별시 마포구 독막로 176, 1층 1-2호 (구수동)",194014.3077,449443.9878,47.19,저가,37.54723852,126.930164,0.203735383,1,1,1,56.72222222,1225266
15,메가엠지씨커피 상계수락점,2023-03-09,영업/정상,,서울특별시 노원구 상계동 966-1 송현빌딩,"서울특별시 노원구 동일로 1596, 송현빌딩 1층 (상계동)",204930.6188,463164.5984,56,저가,37.6708657,127.0537842,0.459713745,0,0,0,26.26666667,3586097
16,컴포즈커피 창동역서부점,2023-03-06,영업/정상,,서울특별시 도봉구 창동 74-5,"서울특별시 도봉구 노해로63길 78, 1층 101호 (창동)",204023.5622,461147.2947,31.9,저가,37.65269469,127.043492,0.392094528,1,1,2,36.55555556,1597250
17,메가엠지씨커피 온수역점,2021-12-14,영업/정상,,서울특별시 구로구 온수동 157 다청림시티,"서울특별시 구로구 부일로1길 26-12, 지하1층 제B05호 (온수동, 다청림시티)",184120.1154,443353.5358,88.27,저가,37.4922461,126.8183337,0.289955143,1,0,0,47.12222222,64192
18,메가엠지씨커피 광흥창역점,2022-04-05,영업/정상,,서울특별시 마포구 창전동 444 서강쌍용예가,"서울특별시 마포구 서강로 55, 서강쌍용예가 제근린생활시설(2단지) 1층 101,102호 (창전동)",193694.9917,449568.978,83.26,저가,37.54836252,126.9265495,0.330221972,0,1,1,56.72222222,4221665
19,메가엠지씨커피 신정네거리역점,2019-08-30,영업/정상,,서울특별시 양천구 신정동 1183-5 1층,"서울특별시 양천구 중앙로 265, 1층 (신정동)",186901.467,446420.057,72,저가,37.5199191,126.8497294,0.386705728,2,2,2,28.6,3666464
20,컴포즈커피 망원시장점,2023-03-08,영업/정상,,서울특별시 마포구 망원동 401-12,"서울특별시 마포구 망원로8길 53, 1층 102호 (망원동)",191669.161,450316.1756,36.88,저가,37.55507848,126.9036163,0.559643387,3,0,0,41.93333333,19351605
21,메가엠지씨커피 중랑망우점,2023-03-08,영업/정상,,서울특별시 중랑구 망우동 182-11 동원빌딩,"서울특별시 중랑구 양원역로 22-1, 동원빌딩 1층 (망우동)",209471.8796,455599.6098,95.7,저가,37.60267166,127.1051608,1.124722065,0,1,0,46.33333333,3519634
22,메가엠지씨커피 신내동성점,2023-10-31,영업/정상,,서울특별시 중랑구 신내동 393-17 리치하우스,"서울특별시 중랑구 봉화산로 233-1, 1층 101호 (신내동, 리치하우스)",208641.607,456222.9935,72.23,저가,37.60829634,127.0957658,0.816460703,0,1,1,46.33333333,245556
23,메가엠지씨커피 방배백석점,2023-04-27,영업/정상,,서울특별시 서초구 방배동 983-11,"서울특별시 서초구 방배로 58, 1층 105호 (방배동)",199837.5667,441982.9191,58.18,저가,37.48003436,126.9960623,0.162535442,1,1,5,43.78888889,203585
24,메가엠지씨커피 중대후문점,2023-04-27,영업/정상,,서울특별시 동작구 상도동 7-60,"서울특별시 동작구 흑석로 21, 1층 101호 (상도동)",195784.5755,444763.2774,141.61,저가,37.5050755,126.9502236,0.311706145,0,0,0,26.58888889,2272845
25,컴포즈커피 청계천베네치아점,2023-03-09,영업/정상,,서울특별시 중구 황학동 2545 롯데캐슬베네치아,"서울특별시 중구 청계천로 400, 메가몰동 1층 1031-A호 (황학동, 롯데캐슬베네치아)",201823.909,452076.8187,33.58,저가,37.57097822,127.0185437,0.251276104,2,0,2,44.73333333,1289943
26,메가엠지씨커피 동대문한천로점,2023-03-09,영업/정상,,서울특별시 동대문구 장안동 192-75,"서울특별시 동대문구 한천로 60, 1층 (장안동)",205456.3777,451632.9603,105,저가,37.56696502,127.0596585,0.64144618,0,1,0,33.92222222,2169578
27,메가엠지씨커피 가산리더스타워점,2021-08-04,영업/정상,,서울특별시 금천구 가산동 60-15 삼성리더스타워 B103호,"서울특별시 금천구 벚꽃로 286, 삼성리더스타워 지하 1층 B103호 (가산동)",189685.7158,442026.4541,64.36,저가,37.48036838,126.8812864,0.123047819,4,2,10,47.12222222,4504033
28,메가엠지씨커피 서초양재점,2023-09-01,영업/정상,,서울특별시 서초구 양재동 20-29 1층 102호,"서울특별시 서초구 강남대로 156-2, 1층 102호 (양재동)",203387.5551,441822.5273,33,저가,37.47858328,127.0361972,0.732228207,0,2,0,91.44444444,277450
29,메가엠지씨커피 영등포문래점,2023-06-01,영업/정상,,서울특별시 영등포구 문래동3가 84-2 동국메뜨리앙,"서울특별시 영등포구 선유로 76, 동국메뜨리앙 1층 108호 (문래동3가)",190199.2294,446496.8653,53.34,저가,37.52065227,126.8870322,0.527416921,2,1,2,34.88888889,1259118
30,빽다방 중계브라운스톤점,2023-03-31,영업/정상,,서울특별시 노원구 중계동 506 브라운스톤중계,"서울특별시 노원구 동일로203가길 29, 176호 (중계동, 브라운스톤중계)",205601.926,459732.1286,25.33,저가,37.63993623,127.0613672,0.587464106,2,0,0,36.55555556,192966
31,메가엠지씨커피 일원맛의거리점,2023-03-31,영업/정상,,서울특별시 강남구 일원동 685-6,"서울특별시 강남구 일원로9길 7, 지상1층 (일원동)",207197.8162,443052.018,52.8,저가,37.48963945,127.0792865,0.447472686,2,0,0,34.18888889,828385
32,메가엠지씨커피 고척중앙점,2023-03-31,영업/정상,,서울특별시 구로구 고척동 76-38 원메디타운,"서울특별시 구로구 경인로 403, 원메디타운 A동 101호 (고척동)",187923.2757,443993.6703,106.82,저가,37.49807149,126.861328,1.657585846,0,1,2,47.12222222,224948
33,컴포즈커피 강서공항점,2023-03-10,영업/정상,,"서울특별시 강서구 방화동 606-103 드림 1,2층","서울특별시 강서구 방화동로 57, 드림 1,2층 (방화동)",183319.6984,451505.7791,90.7,저가,37.56568278,126.8090971,0.483663812,1,1,0,28.6,1842615
34,빽다방빵연구소 북한산성점,2021-01-12,영업/정상,,"서울특별시 은평구 진관동 279-50 지1층, 1층, 2층","서울특별시 은평구 대서문길 23, 지1층, 1층, 2층 (진관동)",195337.4432,461585.1751,451.74,저가,37.65663625,126.9450582,3.091205578,0,0,1,38.18888889,48067
35,컴포즈커피 중랑용마산점,2022-05-11,영업/정상,,서울특별시 중랑구 면목동 371-146,"서울특별시 중랑구 면목로 252-1, 1층 (면목동)",207491.9478,452555.2111,51.48,저가,37.57526022,127.0827084,0.406922421,1,1,1,33.92222222,187929
36,빽다방 몽촌토성역점,2024-06-03,영업/정상,,서울특별시 송파구 방이동 46-6 잠실 에스뜨레야90,"서울특별시 송파구 백제고분로51길 23, 1층 104호 (방이동)",209906.9615,446035.1549,35.98,저가,37.51649253,127.1099595,0.089502726,1,1,2,32.56666667,6567935
37,메가엠지씨커피 신림프라임법학원점,2016-04-07,영업/정상,,서울특별시 관악구 신림동 131-21,"서울특별시 관악구 신림로 90, 1층 (신림동)",194567.7498,440976.4826,33,저가,37.47095004,126.93649,1.528536686,1,1,1,70.85555556,4902301
38,메가엠지씨커피 서울교통회관점,2024-06-03,영업/정상,,서울특별시 송파구 신천동 11-7 사단법인 서울특별시 교통회관,"서울특별시 송파구 올림픽로 319, 사단법인 서울특별시 교통회관 1층 (신천동)",209243.1693,445935.0925,99.2,저가,37.51559781,127.1024499,0.174301395,1,1,10,32.56666667,16497672
39,컴포즈커피 개포중앙점,2024-06-03,영업/정상,,"서울특별시 강남구 개포동 12-4 석탑프라자, 개포3동주민센터","서울특별시 강남구 개포로 615, 석탑프라자, 개포3동주민센터 지상1층 105호 (개포동)",206618.4252,443390.5606,23.09,저가,37.49269401,127.0727382,0.456081175,2,0,0,34.18888889,828385
40,메가엠지씨커피 서울신미림초점,2024-02-19,영업/정상,,서울특별시 구로구 신도림동 400-1,"서울특별시 구로구 신도림로 7, 1층 112-1호 (신도림동)",189067.276,444891.6056,65,저가,37.50617618,126.8742515,1.033149724,0,1,1,47.12222222,2731150
41,메가엠지씨커피 압구정카페골목점,2024-06-03,영업/정상,,서울특별시 강남구 신사동 665-6 신한양빌딩,"서울특별시 강남구 선릉로 815, 신한양빌딩 지상1층 6호 (신사동)",203403.7489,446962.8899,52.89,저가,37.5248978,127.0364036,0.729586942,1,1,4,46.7,3004203
42,컴포즈커피 동덕여대점,2023-03-13,영업/정상,,서울특별시 성북구 하월곡동 27-2,"서울특별시 성북구 화랑로11길 37, 1층 (하월곡동)",203658.5826,455735.2726,44.6,저가,37.60393502,127.0393294,0.304774625,0,1,4,36.16666667,1626537
43,메가엠지씨커피 서초샤르망점,2023-04-03,영업/정상,,서울특별시 서초구 서초동 1601-1 브이 샤르망,"서울특별시 서초구 효령로55길 28, 1층 106호 (서초동)",201213.927,442658.694,44,저가,37.48612241,127.0116243,0.432913077,2,2,8,37.3,5958493
44,메가엠지씨커피 아현중앙점,2023-04-03,영업/정상,,서울특별시 마포구 아현동 347-1,"서울특별시 마포구 신촌로 236-1, 1층 (아현동)",195682.784,450515.1456,81.61,저가,37.55689899,126.949038,0.115406564,0,0,1,60.1,2005703
45,메가엠지씨커피올림픽대교북단점,2023-03-14,영업/정상,,서울특별시 광진구 구의동 200-20 구의동20020빌딩,"서울특별시 광진구 아차산로 481, 구의동20020빌딩 1층 (구의동)",208324.9394,448746.4666,55.03,저가,37.54093677,127.0920952,0.418031514,1,1,2,46.53333333,4434046
46,빽다방 동대문역사문화공원역점,2023-09-04,영업/정상,,서울특별시 중구 을지로6가 18-71 대화빌딩,"서울특별시 중구 을지로43길 13, 대화빌딩 1층 (을지로6가)",200531.4987,451623.1515,77.21,저가,37.5668923,127.0039139,0.464081282,4,2,9,58.21111111,4155281
47,메가엠지씨커피 IBK파이낸스점,2024-02-19,영업/정상,,서울특별시 중구 을지로2가 206 IBK파이낸스타워,"서울특별시 중구 을지로 82, IBK파이낸스타워 27층 (을지로2가)",198791.047,451496.5282,30,저가,37.56575067,126.984214,0.32081299,3,2,15,84.78888889,3421674
48,컴포즈커피 시흥은행나무점,2023-03-15,영업/정상,,서울특별시 금천구 시흥동 911-3,"서울특별시 금천구 금하로 714, 1층 103호 (시흥동)",191875.0482,438743.1414,20,저가,37.45080763,126.9060752,3.826800039,1,1,0,70.85555556,805223
49,메가엠지씨커피 교보타워사거리점,2023-04-28,영업/정상,,서울특별시 서초구 반포동 737-16 운학빌딩,"서울특별시 서초구 강남대로79길 10, 1층 (반포동)",201982.9763,444788.7023,46.2,저가,37.5053125,127.0203253,0.820481947,1,2,12,55.45555556,14865818
50,메가엠지씨커피 고덕역점,2019-11-04,영업/정상,,서울특별시 강동구 명일동 47-10 성은빌딩,"서울특별시 강동구 동남로75길 13-15, 성은빌딩 1층 (명일동)",213674.4934,450160.9367,72.6,저가,37.55361756,127.1526517,0.228312482,1,0,3,46.33333333,2026782
51,컴포즈커피 면목2동점,2020-05-13,영업/정상,,서울특별시 중랑구 면목동 181-1,"서울특별시 중랑구 봉우재로 40, 1층 (면목동)",206795.0095,454234.2339,72.6,저가,37.59039332,127.0748344,1.1109543,0,1,0,41.93333333,3836910
52,컴포즈커피 상암점,2016-07-08,영업/정상,,서울특별시 마포구 상암동 1601 1층 139호,"서울특별시 마포구 월드컵북로 402, 1층 139호 (상암동)",190125.5648,453090.1498,17.92,저가,37.58005626,126.8861096,1.44326323,1,1,7,26.26666667,5098336
53,컴포즈커피 도봉산입구점,2023-03-16,영업/정상,,서울특별시 도봉구 도봉동 554-3,"서울특별시 도봉구 도봉산길 51, 1층 (도봉동)",203452.4362,464942.3584,91.8,저가,37.68688945,127.0370376,0.880267922,1,0,1,91.44444444,6200191
54,메가엠지씨커피 역삼테헤란로점,2023-07-10,영업/정상,,서울특별시 강남구 역삼동 735-17 역삼 푸르지오 시티,"서울특별시 강남구 논현로85길 52, 역삼 푸르지오 시티 지상1층 101호-1호 (역삼동)",202905.3032,443996.9848,16.78,저가,37.49817676,127.0307534,0.258942414,0,1,7,63.37777778,9343844
55,빽다방 해방촌오거리점,2023-04-26,영업/정상,,서울특별시 용산구 용산동2가 1-530,"서울특별시 용산구 신흥로20길 1, 1층 (용산동2가)",198612.572,449283.8747,46.28,저가,37.54581462,126.9821982,0.904822132,1,0,0,70.85555556,7977427
56,메가엠지씨커피서원역점,2023-04-07,영업/정상,,서울특별시 관악구 신림동 1641-90 대원빌딩,"서울특별시 관악구 신림로 272, 대원빌딩 1층 101호 (신림동)",193919.807,441887.7367,85,저가,37.47915637,126.9291577,0.575581857,1,2,0,60.31111111,3560125
57,컴포즈커피 봉천점,2019-01-04,영업/정상,,서울특별시 관악구 봉천동 501-1,"서울특별시 관악구 양녕로 59, 1층 (봉천동)",195204.332,442787.0848,33.1,저가,37.48726715,126.9436743,0.406956505,1,2,0,28.6,455124
58,메가엠지씨커피 가양두산위브점,2024-04-15,영업/정상,,서울특별시 강서구 등촌동 726 가양역 두산위브,"서울특별시 강서구 공항대로45길 15, 1층 102-2호 (등촌동, 가양역 두산위브)",187059.7034,450478.9561,53.72,저가,37.55649161,126.8514475,1.552229863,1,2,4,30.91111111,267190
59,빽다방 석촌역점,2022-02-15,영업/정상,,서울특별시 송파구 송파동 19-8 임진각빌딩,"서울특별시 송파구 백제고분로 385, 임진각빌딩 1층 102호 (송파동)",209502.9884,444909.2466,42.9,저가,37.50635236,127.1053756,0.03838313,2,0,1,46.33333333,3731184
60,빽다방 공릉중앙점,2023-03-22,영업/정상,,서울특별시 노원구 공릉동 345-3,"서울특별시 노원구 공릉로 153, 제1호동 1층 제1호 (공릉동)",206943.0912,457966.3948,53.28,저가,37.6240183,127.0765461,0.386587038,1,1,0,28.6,2760815
61,메가엠지씨커피 강서한강자이타워점,2019-11-15,영업/정상,,서울특별시 강서구 가양동 1498 강서한강자이타워 1층 B동 106호,"서울특별시 강서구 양천로 401, 강서한강자이타워 B동 1층 106호 (가양동)",186501.2332,451485.2519,71.69,저가,37.56555015,126.8451085,1.45529979,1,1,0,34.24444444,1339129
62,빽다방 신도림큐브스테이트점,2023-06-02,영업/정상,,서울특별시 구로구 신도림동 436-7 신도림큐브스테이트,"서울특별시 구로구 경인로 611-7, 1층 102호 (신도림동, 신도림큐브스테이트)",189652.929,444919.8742,45.43,저가,37.50643766,126.8808747,0.906625447,1,0,2,46.33333333,2731150
63,컴포즈커피 공릉2동점,2023-03-24,영업/정상,,서울특별시 노원구 공릉동 340-15 베에스다피아노학원,"서울특별시 노원구 공릉로38길 5, 베에스다피아노학원 1층 (공릉동)",206972.7828,457894.3344,56.1,저가,37.62336883,127.0768817,0.450907765,1,1,0,41.93333333,2760815
64,메가엠지씨커피 망원시장점,2023-03-20,영업/정상,,서울특별시 마포구 망원동 423-15,"서울특별시 마포구 망원로 79, 1층 (망원동)",191587.6307,450600.6118,39.12,저가,37.55764047,126.9026904,0.669727449,1,0,0,28.6,4361936
65,컴포즈커피 강서구청점,2021-06-09,영업/정상,,서울특별시 강서구 화곡동 1105-5 1층,"서울특별시 강서구 화곡로 313, 1층 (화곡동)",186651.0259,450017.8325,79.33,저가,37.55233109,126.8468308,0.981158555,2,1,1,55.45555556,1278572
66,빽다방 길동역점,2023-04-07,영업/정상,,서울특별시 강동구 길동 391-5,"서울특별시 강동구 양재대로 1482, 1층 (길동)",212335.7692,448418.2282,40,저가,37.53793474,127.1374724,0.22435551,2,1,3,26.58888889,17163515
67,빽다방 장승배기역점,2024-04-15,영업/정상,,서울특별시 동작구 상도동 180-2,"서울특별시 동작구 장승배기로 71, 1층 (상도동)",194553.6783,444641.7432,51.17,저가,37.50397395,126.9363035,0.428744131,1,1,1,63.5,1962075
68,메가엠지씨커피 회현SK리더스뷰점,2023-03-21,영업/정상,,서울특별시 중구 회현동1가 206 리더스뷰남산,"서울특별시 중구 퇴계로 72, 101호 (회현동1가, 리더스뷰남산)",198219.4753,450761.4438,31.95,저가,37.55912668,126.9777463,0.031254252,1,3,9,91.44444444,286457
69,메가엠지씨커피 매봉역점,2023-03-21,영업/정상,,서울특별시 강남구 도곡동 419-3,"서울특별시 강남구 남부순환로378길 12, 지상1층 (도곡동)",203981.5262,442582.5053,39.6,저가,37.48542837,127.0429165,0.374958686,1,0,1,91.44444444,2270412
70,컴포즈 커피 개포구룡초교점(COMPOSE COFFEE),2024-08-02,영업/정상,,서울특별시 강남구 개포동 655-4 개포동 메디시스빌딩,"서울특별시 강남구 개포로 265, 개포동 메디시스빌딩 지상1층 107호 (개포동)",204615.1368,442085.4889,48,저가,37.48094734,127.0500774,0.736072877,0,0,0,60.31111111,2065209
71,컴포즈커피 숭실대점,2023-06-05,영업/정상,,서울특별시 동작구 상도동 488,"서울특별시 동작구 상도로 357, 1층 제카호, 3호 (상도동)",195821.726,443860.5965,41.33,저가,37.49694253,126.9506489,0.32502171,1,0,2,69.35555556,532822
72,컴포즈커피 대치학원가중앙점,2024-02-20,영업/정상,,서울특별시 강남구 대치동 1022-3,"서울특별시 강남구 도곡로78길 6, 지상1층 101호 (대치동)",205140.595,443950.495,60,저가,37.49774831,127.0560311,0.78773344,1,1,2,91.44444444,7910447
73,메가엠지씨커피 국악고점,2024-08-02,영업/정상,,서울특별시 강남구 개포동 1200-5,"서울특별시 강남구 논현로12길 33, 지상1층 102호, 103호 (개포동)",204368.8733,441505.135,65,저가,37.47571952,127.0472898,1.254749509,0,0,0,26.26666667,1861007
74,메가엠지씨커피 수락리버시티점,2024-02-19,영업/정상,,서울특별시 노원구 상계동 1313-1 크로바프라자,"서울특별시 노원구 누원로 22, 크로바프라자 1층 102호 (상계동)",204610.0719,464964.2844,31.44,저가,37.68708199,127.0501621,0.376390951,0,0,0,45.63333333,376169
75,메가엠지씨커피 신촌기차역점,2023-07-13,영업/정상,,서울특별시 서대문구 대현동 110-5,"서울특별시 서대문구 신촌역로 23, 1층 101호 (대현동)",194843.1623,450715.115,51.4,저가,37.55869632,126.9395342,0.270027173,2,0,5,60.31111111,445685
76,메가엠지씨커피 서울은천초점,2024-06-04,영업/정상,,서울특별시 관악구 봉천동 902-8 라이프빌딩,"서울특별시 관악구 은천로 84, 라이프빌딩 1층 (봉천동)",195020.658,442714.5811,99,저가,37.48661291,126.941598,0.272953353,1,2,0,45.51111111,264577
77,메가엠지씨커피 논현동현점,2024-06-04,영업/정상,,서울특별시 강남구 논현동 92-6,"서울특별시 강남구 도산대로50길 8, 지상1층 102호 (논현동)",203228.367,446625.6419,49.5,저가,37.52185983,127.0344181,0.570325941,2,1,2,56.72222222,1819350
78,메가엠지씨커피 홍대정문점,2023-09-05,영업/정상,,서울특별시 마포구 서교동 338-18,"서울특별시 마포구 와우산로 100, 1층 일부호 (서교동)",193276.924,450065.8384,99,저가,37.5528362,126.921814,0.436037656,2,2,11,32.74444444,366250
79,컴포즈커피 신용산래미안점(COMPOSE COFFEE),2023-11-02,영업/정상,,서울특별시 용산구 한강로2가 422 래미안용산 더 센트럴,"서울특별시 용산구 한강대로 95, 제1층 109호 (한강로2가, 래미안용산 더 센트럴)",197011.7375,447430.1003,41.94,저가,37.52910834,126.9640912,0.350020589,2,2,10,47.12222222,3236355
80,메가엠지씨커피 구로고대병원점,2023-04-13,영업/정상,,서울특별시 구로구 구로동 729-2,"서울특별시 구로구 구로동로25길 3, 1층 (구로동)",189655.1124,443148.6878,58.52,저가,37.49047935,126.8809245,0.745597194,0,1,1,44.73333333,3117421
81,컴포즈커피 왕십리역사점,2023-04-13,영업/정상,,서울특별시 성동구 행당동 168-151 왕십리민자역사,"서울특별시 성동구 왕십리광장로 17, 왕십리민자역사 4층 135호 (행당동)",203321.5623,451001.8687,23.1,저가,37.56128897,127.0354918,0.052788273,2,0,7,34.24444444,4422582
82,컴포즈커피 신도림역사점,2007-12-04,영업/정상,,서울특별시 구로구 구로동 3-25 신도림테크노마트 지하1층 BS 001호,"서울특별시 구로구 새말로 97 (구로동,신도림테크노마트 지하1층 BS 001호)",190232.5245,444978.6827,144.8,저가,37.50697388,126.8874291,0.379253886,2,2,6,46.53333333,2255219
83,빽다방 자양전통시장점,2023-11-02,영업/정상,,서울특별시 광진구 자양동 612-47 아트하임 기흥,"서울특별시 광진구 자양로15길 52, 1층 101호 (자양동, 아트하임 기흥)",207070.6276,448131.1453,32.42,저가,37.53540315,127.0778968,0.859012108,2,0,1,56.72222222,218985
84,메가엠지씨커피 구수동사거리점,2023-11-02,영업/정상,,서울특별시 마포구 창전동 150-41,"서울특별시 마포구 창전로 35, 1층 (창전동)",193901.7916,449276.5294,83.71,저가,37.54572899,126.9288921,0.36884234,1,1,0,30.91111111,1225266
85,메가엠지씨커피 석촌한솔점,2023-05-09,영업/정상,,서울특별시 송파구 석촌동 285-4,"서울특별시 송파구 백제고분로 354, 1층 (석촌동)",209269.2985,444673.8334,119,저가,37.50423366,127.1027297,0.369474755,1,2,1,36.55555556,3731184
86,메가엠지씨커피 서울쌍문초점,2023-05-09,영업/정상,,서울특별시 도봉구 쌍문동 306-29,"서울특별시 도봉구 노해로41길 32, 1층 (쌍문동)",202204.3282,460840.7082,36,저가,37.64993846,127.0228755,1.079518317,1,1,0,28.6,6291892
87,컴포즈커피 마곡수명산점,2020-06-08,영업/정상,,서울특별시 강서구 내발산동 750-6 발산신성프라자 1층 102호,"서울특별시 강서구 수명로 72, 발산신성프라자 1층 102호 (내발산동)",184566.593,450029.7185,47.97,저가,37.5524055,126.8232416,0.888203829,1,1,0,47.12222222,44150
88,컴포즈커피 신정이펜하우스점,2023-03-21,영업/정상,,서울특별시 양천구 신정동 1320-1 서남 프라자2 1층 105호,"서울특별시 양천구 신정이펜2로 14, 서남 프라자2 1층 105호 (신정동)",185110.8943,445597.8673,41.42,저가,37.51248396,126.8294915,2.225929578,0,0,0,28.6,358754
89,메가엠지씨커피 서서울호수공원점,2023-04-17,영업/정상,,서울특별시 양천구 신월동 205-46 1층,"서울특별시 양천구 남부순환로 432, 1층 (신월동)",185113.2267,447465.3505,70,저가,37.52930987,126.8294799,1.522655157,0,0,3,46.53333333,2419883
90,메가엠지씨커피 광진자양뚝섬로점,2024-02-21,영업/정상,,서울특별시 광진구 자양동 636-11 그랜드 아파트,"서울특별시 광진구 뚝섬로52길 7, 1층 101,102호 (자양동, 그랜드 아파트)",206969.6253,447701.6798,53.45,저가,37.53153446,127.07675,0.860354139,0,0,0,34.24444444,218985
91,메가엠지씨커피 보라매역점,2021-04-26,영업/정상,,서울특별시 영등포구 신길동 503-1,"서울특별시 영등포구 여의대방로 137, 1층 (신길동)",192858.8558,444144.9416,62.7,저가,37.49948612,126.9171408,0.302872882,1,1,1,84.78888889,230343
92,빽다방 종로3가낙원점,2024-04-16,영업/정상,,서울특별시 종로구 낙원동 211 젬누리빌딩,"서울특별시 종로구 수표로 115-1, 젬누리빌딩 1층 1호 (낙원동)",198960.877,452149.4956,38.79,저가,37.57163405,126.9861353,0.444165687,5,3,7,69.35555556,5140681
93,메가엠지씨커피 역삼래미안점,2023-04-19,영업/정상,,서울특별시 강남구 역삼동 761-18 강남프라자,"서울특별시 강남구 언주로 314, 강남프라자 지상1층 104호 (역삼동)",204056.1997,443750.8845,27.67,저가,37.49595514,127.0437671,0.759226667,0,0,0,26.26666667,1187408
94,메가엠지씨커피(중계학원가점),2023-04-19,영업/정상,,서울특별시 노원구 중계동 360-11 하나프라자빌딩,"서울특별시 노원구 한글비석로 235, 하나프라자빌딩 지상1층 101호 (중계동)",206667.4307,460712.8094,36.32,저가,37.64876489,127.0734483,0.92845557,2,1,3,28.6,1867546
95,빽다방 가양중앙점,2024-04-16,영업/정상,,서울특별시 강서구 가양동 1479-4 시드프라자 1층 104호,"서울특별시 강서구 양천로57길 13, 시드프라자 1층 104호 (가양동)",186856.9376,451268.3893,40.32,저가,37.56360141,126.8491385,1.867793308,3,0,1,43.41111111,185040
96,빽다방 숙대입구역점,20220609,영업/정상,,서울특별시 용산구 갈월동 90-10,"서울특별시 용산구 한강대로 279, 제1호 내제1층호 (갈월동)",197473.5736,448985.203,23,저가,37.54312112,126.9693106,0.357166451,0,0,3,36.55555556,745210
97,빽다방 도봉구민회관점,2021-03-09,영업/정상,,서울특별시 도봉구 쌍문동 694,"서울특별시 도봉구 도봉로 551, 1층 (쌍문동)",203250.4021,461352.3372,26.44,저가,37.65454508,127.0347314,0.611035771,0,1,1,30.91111111,664090
98,메가엠지씨커피 수서역점,2023-06-09,영업/정상,,서울특별시 강남구 수서동 724 로즈데일오피스텔,"서울특별시 강남구 광평로 280, 로즈데일오피스텔 지하2층 128호 (수서동)",209052.0725,442797.1382,30.72,저가,37.48732681,127.1002501,0.107478684,0,0,3,91.44444444,1029888
99,메가엠지씨커피 역삼GFC점,2023-06-09,영업/정상,,서울특별시 강남구 역삼동 738-9 C and C빌딩,"서울특별시 강남구 논현로 429, 지상1층,2층 (역삼동)",203239.378,444104.7376,165.91,저가,37.49914652,127.0345318,0.408691631,0,0,4,38.18888889,2582012
100,컴포즈커피 녹번점,2023-05-12,영업/정상,,서울특별시 은평구 녹번동 252,"서울특별시 은평구 은평로 229, 1층 (녹번동)",194035.7299,455440.4579,83.84,저가,37.60126606,126.9303571,0.476138921,2,1,1,70.4,2561877
101,컴포즈커피 신사세로수길점,2023-09-08,영업/정상,,서울특별시 강남구 신사동 549-6,"서울특별시 강남구 논현로175길 58, 지상1층 101호 (신사동)",202066.6024,446916.2289,46.53,저가,37.52448126,127.0212769,0.5792918,0,0,1,55.45555556,13303116
102,메가엠지씨커피 성내동농협교차로점,2023-12-22,영업/정상,,서울특별시 강동구 성내동 420-42 아이앤티(강동),"서울특별시 강동구 성안로 71, 아이앤티(강동) 1층 (성내동)",211558.8191,447536.9821,42,저가,37.53000479,127.1286677,0.607401995,0,1,0,46.33333333,2001697
103,빽다방중화동제일시장점,2023-06-12,영업/정상,,서울특별시 중랑구 묵동 250-38 행복을주는온누리약국,"서울특별시 중랑구 중랑역로 134, 행복을주는온누리약국 1층 (묵동)",206748.5923,455911.4911,78.02,저가,37.60550546,127.0743241,0.593026385,2,0,0,28.6,7616573
104,컴포즈커피 등촌현대점,2023-06-12,영업/정상,,서울특별시 강서구 등촌동 514-1 101호,"서울특별시 강서구 등촌로39길 13, 1층 101호 (등촌동)",187690.9111,449259.3504,55,저가,37.54551179,126.8586116,1.641191325,1,1,2,69.35555556,2923919
105,컴포즈 커피(COMPOSE COFFEE) 대치중앙점,2023-06-12,영업/정상,,서울특별시 강남구 대치동 931-20 진선빌딩,"서울특별시 강남구 삼성로 329, 진선빌딩 지상1층 101호 (대치동)",205183.0984,444313.8573,58.38,저가,37.50102196,127.0565143,0.722609043,3,0,3,66.93333333,7910447
106,빽다방 종로평창동점,2023-05-12,영업/정상,,서울특별시 종로구 평창동 158-1 글로리아타운 A동 112호,"서울특별시 종로구 평창문화로 75, 글로리아타운 A동 112호 (평창동)",197212.3649,456055.2058,47.4,저가,37.60682016,126.9663274,2.768009025,0,0,2,70.85555556,2159037
107,메가엠지씨커피 신림녹두거리점,2023-05-12,영업/정상,,서울특별시 관악구 신림동 1538-3,"서울특별시 관악구 대학6길 2, 1층 (신림동)",194404.0164,440759.317,52.8,저가,37.46899238,126.9346407,1.778273292,3,1,2,26.26666667,4902301
108,빽다방 마들역점,2023-05-12,영업/정상,,서울특별시 노원구 상계동 649-1 다래빌딩,"서울특별시 노원구 동일로 1554, 다래빌딩 1층 107호 (상계동)",205005.1078,462756.3327,32.4,저가,37.66718695,127.0546257,0.215535305,1,1,0,69.35555556,449373
109,컴포즈커피 대치은마점,2023-05-11,영업/정상,,서울특별시 강남구 대치동 990,"서울특별시 강남구 도곡로 516, 지상1층 101호 (대치동)",205509.9665,444112.267,40.56,저가,37.49920377,127.0602094,0.932472592,0,2,1,31.98888889,80308
110,컴포즈커피 광진능동로점,20220613,영업/정상,,서울특별시 광진구 군자동 102-44 1층,"서울특별시 광진구 군자로 104, 1층 (군자동)",206259.3977,450001.9348,60,저가,37.55226461,127.0687341,0.733512669,2,1,1,60.1,8158045
111,컴포즈커피 공덕역점(COMPOSE COFFEE),2023-07-18,영업/정상,,서울특별시 마포구 공덕동 256-13 제일빌딩,"서울특별시 마포구 만리재로 15, 제일빌딩 1층 104,105호 (공덕동)",195748.0644,449145.5788,40.56,저가,37.54455963,126.9497849,0.124589946,1,2,3,42.04444444,147044
112,컴포즈커피 연신내로데오점,2023-06-13,영업/정상,,서울특별시 은평구 갈현동 402-1,"서울특별시 은평구 통일로83길 5-9, 1층 (갈현동)",192795.637,457570.6857,36.5,저가,37.62045004,126.9162929,0.451430803,3,5,3,84.78888889,3813780
113,메가엠지씨커피 을지로입구역점,2017-12-29,영업/정상,,서울특별시 중구 남대문로1가 22-10 1층,"서울특별시 중구 남대문로 112, 1층 (남대문로1가)",198429.9719,451654.1949,13.2,저가,37.56717066,126.9801267,0.137670221,3,2,27,47.12222222,28675584
114,컴포즈커피 구로4동점,2023-05-15,영업/정상,,서울특별시 구로구 구로동 806-78 시몬빌딩,"서울특별시 구로구 구로동로 78, 시몬빌딩 1층 (구로동)",189849.2224,442627.6841,50,저가,37.48578728,126.8831266,0.362962485,1,0,0,46.53333333,9248055
115,컴포즈커피 자양전통시장점,2022-08-30,영업/정상,,서울특별시 광진구 자양동 625-17 1층호,"서울특별시 광진구 자양로15길 43, 1층 (자양동)",207121.7218,448124.7466,60,저가,37.53534511,127.0784748,0.901996488,2,1,3,55.45555556,218985
116,컴포즈커피 강동고덕역점,2023-06-14,영업/정상,,서울특별시 강동구 명일동 46-1 명성프라자,"서울특별시 강동구 고덕로 256, 명성프라자 1층 111호 (명일동)",213545.4816,450269.2548,48.64,저가,37.55459539,127.1511937,0.233809354,1,0,2,44.73333333,2263602
117,컴포즈커피 신설동역점,2023-06-12,영업/정상,,서울특별시 동대문구 신설동 98-28,"서울특별시 동대문구 왕산로 18, 1층 103호 (신설동)",202196.0067,452640.3748,32.87,저가,37.57605501,127.0227574,0.28585601,1,2,2,43.41111111,7999212
118,메가엠지씨커피 서울역한라비발디점,2023-06-05,영업/정상,,서울특별시 중구 만리동2가 288,"서울특별시 중구 만리재로 177, 상가동 지하2층 108호 (만리동2가, 서울역한라비발디센트럴)",196907.9985,450316.3995,78.22,저가,37.55511331,126.9629052,0.50053946,1,0,1,26.26666667,1840128
119,빽다방 중계본동점,2023-09-08,영업/정상,,서울특별시 노원구 중계동 58-20,"서울특별시 노원구 중계로12가길 2, 1층 103호 (중계동)",207176.8767,460552.4957,50,저가,37.6473167,127.0792195,1.35112716,2,1,0,34.24444444,1867546
120,메가엠지씨커피영등포위더스점,2016-04-06,영업/정상,,서울특별시 영등포구 영등포동6가 7 1층,"서울특별시 영등포구 영중로 55, 1층 (영등포동6가)",191502.477,446570.1497,38.49,저가,37.52132557,126.9017736,0.35888835,3,3,3,44.73333333,5611151
121,메가엠지씨커피 충무아트센터점,2023-04-24,영업/정상,,서울특별시 중구 신당동 247-2,"서울특별시 중구 퇴계로 388-1, 1층 (신당동)",201232.5025,451413.7832,49,저가,37.56500529,127.0118482,0.266044755,3,0,2,41.93333333,3883946
122,빽다방상암KGIT점,2015-07-20,영업/정상,,"서울특별시 마포구 상암동 1601 KGIT센터 105호, 106호","서울특별시 마포구 월드컵북로 402 (상암동, KGIT센터 105호, 106호)",190125.5648,453090.1498,42.31,저가,37.58005626,126.8861096,1.44326323,1,1,7,36.55555556,5098336
123,컴포즈커피(COMPOSE COFFEE) 수유시장점,2023-05-16,영업/정상,,서울특별시 강북구 수유동 54-11,"서울특별시 강북구 도봉로 251, 1층 (수유동)",202049.3775,458727.6854,50,저가,37.63090095,127.021114,0.662490592,2,0,1,138.7,4728106
124,메가엠지씨커피 충무로저동점,2023-06-15,영업/정상,,서울특별시 중구 충무로3가 24-11 금용빌딩,"서울특별시 중구 수표로6길 1, 금용빌딩 1층 103호 (충무로3가)",199093.3591,451180.0998,27.67,저가,37.56290006,126.9876362,0.283846331,2,2,8,36.16666667,6915272
125,빽다방 월계롯데캐슬루나점,2023-06-15,영업/정상,,서울특별시 노원구 월계동 947 롯데캐슬루나아파트,"서울특별시 노원구 월계로45길 21, 105호,108-1호 (월계동, 롯데캐슬루나아파트)",204325.9896,458245.315,30,저가,37.62654717,127.0469022,1.830344183,1,2,0,70.85555556,951890
126,컴포즈커피 금천구청점,2023-05-17,영업/정상,,서울특별시 금천구 시흥동 114-5,"서울특별시 금천구 시흥대로63길 43, 지상1층 일부호 (시흥동)",190841.0269,439227.6104,50,저가,37.45516298,126.8943832,2.916004197,1,1,1,63.5,1518232
127,메가엠지씨커피 중구중림점,2023-07-20,영업/정상,,서울특별시 중구 중림동 471,"서울특별시 중구 청파로 457-1, 1층 (중림동)",197085.5004,450880.5105,60.24,저가,37.56019649,126.9649117,0.116304191,0,0,3,60.31111111,2002628
128,빽다방 신림역2호점,2023-07-20,영업/정상,,서울특별시 관악구 신림동 1641-9,"서울특별시 관악구 신림로 324, 1층 (신림동)",193738.2822,442335.0044,24,저가,37.48318504,126.9271016,0.205612149,6,1,7,36.55555556,2995241
129,컴포즈커피 창동어울림점,2023-09-11,영업/정상,,"서울특별시 도봉구 창동 296-1 타임프라자 110, 111호","서울특별시 도봉구 해등로16길 26, 타임프라자 110,111호 (창동)",203589.2056,461471.4723,56.25,저가,37.65561722,127.0385714,0.791341057,1,2,1,36.98888889,664090
130,메가엠지씨커피 영등포당산로점,2023-09-05,영업/정상,,서울특별시 영등포구 당산동4가 32-70,"서울특별시 영등포구 당산로 164, 1층 (당산동4가)",190944.0418,447423.206,74.4,저가,37.5290062,126.895446,0.423571262,1,1,1,46.53333333,7306631
131,빽다방 잠실대교북단점,2024-06-07,영업/정상,,서울특별시 광진구 자양동 681,"서울특별시 광진구 자양로 48, 1층 (자양동)",207509.8167,447795.3912,46,저가,37.5323746,127.0828624,0.834641774,1,1,0,46.53333333,2300304
132,메가엠지씨커피 어린이대공원역점,2023-07-21,영업/정상,,서울특별시 광진구 화양동 111-118,"서울특별시 광진구 능동로 179, 1층 (화양동)",206426.6551,449379.0237,82,저가,37.5466511,127.0706215,0.299389331,1,2,5,47.12222222,8158045
133,메가엠지씨커피 가산그레이트밸리점,2023-06-19,영업/정상,,서울특별시 금천구 가산동 60-5 갑을그레이트밸리,"서울특별시 금천구 디지털로9길 32, 갑을그레이트밸리 지상1층 104-1호 (가산동)",189982.3445,441928.6904,63.12,저가,37.47949081,126.8846413,0.213922977,3,2,7,34.24444444,4504033
134,빽다방여의도역점,2023-06-19,영업/정상,,서울특별시 영등포구 여의도동 35-5 여의도종합상가,"서울특별시 영등포구 여의나루로 42, 여의도종합상가 1층 110호 (여의도동)",193306.33,446582.7823,47.74,저가,37.52145435,126.9221788,0.464550841,1,2,8,34.18888889,2148021
135,빽다방 일원영희초교점,2023-06-22,영업/정상,,서울특별시 강남구 일원동 683-9,"서울특별시 강남구 일원로3길 20, 지상1층 (일원동)",207200.389,443261.7234,77.8,저가,37.49152887,127.0793177,0.23769184,2,0,1,47.12222222,828385
136,메가엠지씨커피 구로주공점,2023-11-06,영업/정상,,서울특별시 구로구 구로동 685-215 종합상가,"서울특별시 구로구 구일로4길 33, 종합상가 102호 (구로동)",188946.8854,443320.5196,20.45,저가,37.4920193,126.8729137,1.428714999,0,0,0,66.93333333,4967481
137,메가엠지씨커피 종로구기점,2023-09-13,영업/정상,,서울특별시 종로구 구기동 58-4,"서울특별시 종로구 진흥로 460, 지상 1, 2층 (구기동)",196316.429,456046.1748,72.06,저가,37.60673558,126.956181,1.906409917,0,0,0,26.58888889,2159037
138,메가엠지씨커피 성대시장점,2023-07-24,영업/정상,,서울특별시 동작구 상도동 248-11,"서울특별시 동작구 성대로 13, 1층 (상도동)",193974.7722,444194.9012,47.24,저가,37.49994428,126.9297601,0.184013995,2,0,1,30.91111111,3027959
139,메가엠지씨커피 강남못골도서관점,2023-06-21,영업/정상,,서울특별시 강남구 자곡동 636 서강플라자,"서울특별시 강남구 자곡로 114, 서강플라자 지상1층 103호 (자곡동)",208422.8569,441097.9172,38.85,저가,37.47202272,127.0931163,1.535752998,0,0,0,26.26666667,345633
140,빽다방 상계백병원점,2023-06-21,영업/정상,,서울특별시 노원구 상계동 749-6 명석빌딩,"서울특별시 노원구 동일로 1354, 명석빌딩 지상1층 101호 (상계동)",205426.0931,460800.0735,30.34,저가,37.6495592,127.0593829,0.456598992,2,1,3,34.24444444,935850
141,메가엠지씨커피 대림성모점,2023-09-13,영업/정상,,서울특별시 동작구 신대방동 588-9,"서울특별시 동작구 신대방길 114, 1층 (신대방동)",191832.4196,443146.0307,94.96,저가,37.49047737,126.9055442,0.681084093,1,1,2,34.18888889,2369304
142,메가엠지씨 커피 종합운동장점,2023-09-13,영업/정상,,서울특별시 송파구 잠실동 178-1,"서울특별시 송파구 올림픽로8길 11, 1층 (잠실동)",207029.7894,445407.0904,138.58,저가,37.51085988,127.0774089,0.33002115,1,0,5,34.24444444,10833704
143,메가엠지씨커피 신길성애병원점,2017-10-24,영업/정상,,서울특별시 영등포구 신길동 466-13,"서울특별시 영등포구 영등포로84길 16, 1층 (신길동)",193006.7892,445512.936,102,저가,37.51181285,126.9188006,0.816314199,0,1,1,30.91111111,153918
144,컴포즈커피,2023-07-25,영업/정상,,서울특별시 송파구 가락동 190-7 큰바위빌딩,"서울특별시 송파구 동남로18길 21, 큰바위빌딩 1층 (가락동)",211686.1901,443580.2124,56.1,저가,37.49435292,127.1300462,0.536601417,2,0,0,91.44444444,1435070
145,메가엠지씨커피 강남역삼점,2023-07-25,영업/정상,,서울특별시 강남구 역삼동 789-7 태광빌딩,"서울특별시 강남구 역삼로 156, 태광빌딩 지상1층 103호 (역삼동)",203134.8244,443613.6727,79.3,저가,37.49472239,127.0333474,0.524502213,0,0,0,63.37777778,9343844
146,메가엠지씨커피 해방촌오거리점,2023-11-07,영업/정상,,서울특별시 용산구 용산동2가 17-10,"서울특별시 용산구 소월로20길 23, 씨호 1층 (용산동2가)",198644.6881,449242.7955,56.01,저가,37.54544455,126.9825617,0.936539912,1,0,0,26.26666667,7977427
147,컴포즈커피 하계을지병원점,2023-11-07,영업/정상,,서울특별시 노원구 하계동 115-5,"서울특별시 노원구 공릉로59나길 48-4, 1층 (하계동)",206115.5036,459226.3811,135.72,저가,37.63537632,127.0671819,0.119312555,2,0,0,43.78888889,420654
148,메가엠지씨커피 방학중앙점,2023-09-14,영업/정상,,서울특별시 도봉구 방학동 687-34,"서울특별시 도봉구 방학로2길 35, 1층 (방학동)",203528.9367,462458.3372,78.6,저가,37.66450884,127.0378931,1.577874451,1,2,1,69.35555556,3138288
149,빽다방 사당방배점,2023-07-26,영업/정상,,서울특별시 서초구 방배동 439-1 신진오피스,"서울특별시 서초구 동작대로 68, 신진오피스 1층 (방배동)",198364.9947,442272.8596,31,저가,37.4826452,126.9794129,0.388121401,2,2,4,43.41111111,3375480
150,컴포즈커피 테헤란아이파크점,2023-05-26,영업/정상,,서울특별시 강남구 역삼동 709-5 테헤란아이파크,"서울특별시 강남구 테헤란로52길 16, 상가-1동 지하1층 3호 (역삼동, 테헤란아이파크)",204062.1558,444460.9734,24.48,저가,37.50235301,127.0438383,0.501029051,1,1,6,36.55555556,7954478
151,컴포즈커피 후암시장점,2023-05-26,영업/정상,,서울특별시 용산구 후암동 116-34,"서울특별시 용산구 한강대로104길 62, 1층 (후암동)",197773.2245,449762.0925,33.06,저가,37.55012162,126.9726989,0.332760692,1,1,3,28.6,497568
152,컴포즈커피 광산사거리점,2023-05-26,영업/정상,,서울특별시 강북구 수유동 183-4 한영빌딩,"서울특별시 강북구 노해로 88, 한영빌딩 1층 우측호 (수유동)",201931.8678,460104.8653,72,저가,37.64330928,127.0197863,0.762508497,2,0,0,36.98888889,2285392
153,메가엠지씨커피 강서가양점,2023-05-26,영업/정상,,서울특별시 강서구 가양동 192-9 한림타운 1층 103호,"서울특별시 강서구 강서로 511, 1층 103호 (가양동, 한림타운)",185917.6707,452084.849,54.9,저가,37.57094365,126.8384917,0.758821433,1,1,0,49.18888889,1339129
154,메가엠지씨커피선유도역점,2024-04-18,영업/정상,,서울특별시 영등포구 양평동5가 26-8 성산빌딩,"서울특별시 영등포구 양평로 127, 성산빌딩 1층 101호 일부호 (양평동5가)",190514.9171,448399.3654,89.3,저가,37.53779697,126.8905785,1.099575632,2,0,3,69.35555556,6754583
155,메가엠지씨커피 성수뚝도점,2024-04-18,영업/정상,,서울특별시 성동구 성수동2가 339-22,"서울특별시 성동구 뚝섬로 399, 1층 (성수동2가)",204798.4082,448524.585,60,저가,37.53896247,127.0521909,0.528420388,1,1,1,70.85555556,5078892
156,컴포즈커피 역삼개나리점,2024-04-18,영업/정상,,서울특별시 강남구 역삼동 730-5,"서울특별시 강남구 언주로 405, 성림상가 지상1층 104호 (역삼동)",203814.1273,444111.9,45.62,저가,37.4992089,127.0410315,0.328909434,0,1,2,70.85555556,19161148
157,빽다방 독산롯데점,2015-10-14,영업/정상,,서울특별시 금천구 독산동 291-5 시티렉스 102호,"서울특별시 금천구 시흥대로 399, 지상1층 102호 (독산동, 시티렉스)",190858.6495,440808.5413,56.25,저가,37.4694074,126.8945626,1.567620407,0,0,4,45.63333333,3502051
158,메가엠지씨커피 난곡우림시장점,2023-07-27,영업/정상,,서울특별시 관악구 신림동 635-23,"서울특별시 관악구 난곡로 176, 1층 (신림동)",192860.315,440958.0737,49,저가,37.47077244,126.9171885,1.829309123,1,1,0,47.12222222,1770561
159,컴포즈커피 이화여대점,2023-06-26,영업/정상,,서울특별시 서대문구 대현동 56-76,"서울특별시 서대문구 이화여대길 37, 1층 (대현동)",195119.29,450712.2033,33.3,저가,37.55867161,126.9426594,0.354156388,4,2,7,55.45555556,445685
160,컴포즈커피 구로궁동점,2023-03-28,영업/정상,,서울특별시 구로구 궁동 189-42,"서울특별시 구로구 부일로15길 36-2, 101호 (궁동)",185180.8316,443602.2724,29,저가,37.4945049,126.8303229,0.858548454,1,0,0,30.91111111,3733007
161,컴포즈커피 강동고덕비즈밸리점,2023-09-15,영업/정상,,서울특별시 강동구 고덕동 343-2 강동U1센터,"서울특별시 강동구 고덕비즈밸리로 26, 강동U1센터 1층 A-127호 (고덕동)",214075.1404,451485.8096,45.36,저가,37.56554848,127.1572111,1.158473822,2,0,1,34.24444444,1208061
162,엠엘(주) 메가엠지씨커피 가락몰점,2022-05-09,영업/정상,,서울특별시 송파구 가락동 600 가락동 농수산물도매시장,"서울특별시 송파구 양재대로 932, 가락동 농수산물도매시장 업무동 1층 (가락동)",209790.9599,443481.2122,150.19,저가,37.49348283,127.1086136,0.774388018,0,0,1,34.88888889,123862
163,컴포즈커피 구로대림점(COMPOSE COFFEE),2023-06-30,영업/정상,,서울특별시 영등포구 대림동 993-57,"서울특별시 영등포구 시흥대로 607, 1층 106호, 107A호 (대림동)",191466.6545,442756.5315,60,저가,37.48696465,126.9014129,0.195207623,0,0,1,45.97777778,2982942
164,메가엠지씨커피 목동3단지점,2023-06-30,영업/정상,,서울특별시 양천구 목동 773-3 목동 글로리파크,"서울특별시 양천구 목동중앙로 43, 1층 101호 (목동, 목동 글로리파크)",188394.9766,447929.3481,55.88,저가,37.53353778,126.8665998,0.851390022,1,0,0,60.31111111,1346103
165,빽다방 약수시장점,2023-06-30,영업/정상,,서울특별시 중구 신당동 367-22,"서울특별시 중구 다산로8길 17, 1층 (신당동)",200861.5055,450069.7292,23,저가,37.5528959,127.0076475,0.325820668,2,1,4,84.78888889,1697718
166,메가엠지씨커피 신림역도림천점,2023-12-28,영업/정상,,서울특별시 관악구 신림동 1433-60,"서울특별시 관악구 남부순환로 1599, 1층 (신림동)",193576.6675,442458.212,30,저가,37.48429402,126.9252733,0.322837716,6,1,9,60.1,2995241
167,메가엠지씨커피 명동길점,2001-05-09,영업/정상,,서울특별시 중구 명동1가 34-1 1층,"서울특별시 중구 명동9길 13, 1층 (명동1가)",198586.0229,451347.3162,10,저가,37.56440598,126.9818937,0.210232051,4,5,35,44.73333333,3421674
168,메가엠지씨커피 아현역점,2023-06-28,영업/정상,,서울특별시 서대문구 북아현동 1015 이편한세상신촌 402엠동 111-1호,"서울특별시 서대문구 신촌로35길 10, 402엠동 1층 111-1호 (북아현동, 이편한세상신촌)",196030.3613,450665.925,38.51,저가,37.55825908,126.9529709,0.237431583,1,2,2,46.33333333,1137082
169,메가엠지씨커피 용두동사거리점,2017-06-19,영업/정상,,서울특별시 동대문구 용두동 130-4,"서울특별시 동대문구 왕산로 71, 1층 (용두동)",202689.1396,452881.4697,107.96,저가,37.57822597,127.0283407,0.287429933,0,1,1,45.63333333,2543009
170,빽다방 상봉이지팰리스점,2024-02-23,영업/정상,,서울특별시 중랑구 상봉동 101 이지팰리스,"서울특별시 중랑구 망우로 316, 이지팰리스 1층 104호 (상봉동)",207660.8837,454911.1103,54.4,저가,37.59648513,127.0846452,0.125900502,2,2,4,28.6,6645186
171,메가엠지씨커피 홍제역점,2020-08-25,영업/정상,,서울특별시 서대문구 홍제동 174-16,"서울특별시 서대문구 세무서길 6, 1층 (홍제동)",195107.5738,453992.9073,78.98,저가,37.58823026,126.9425046,0.255464487,1,1,2,28.6,5074995
172,컴포즈커피 방화방신점,2023-09-14,영업/정상,,서울특별시 강서구 방화동 249-254 센터하임,"서울특별시 강서구 초원로13길 58, A동 1층 101호 (방화동, 센터하임)",183418.7925,451956.8007,76.39,저가,37.56974821,126.8102085,0.485025321,1,1,0,91.44444444,329953
173,컴포즈커피 마곡수명산파크점,2023-09-14,영업/정상,,서울특별시 강서구 내발산동 691 성호빌딩,"서울특별시 강서구 강서로47길 113, 성호빌딩 1층 106호 (내발산동)",184896.3462,450118.2414,47.16,저가,37.55320856,126.8269715,0.802300011,1,1,0,33.92222222,44150
174,메가엠지씨커피 양재중앙점,2023-07-28,영업/정상,,서울특별시 서초구 양재동 377,"서울특별시 서초구 동산로12길 3, 1층 (양재동)",203936.4776,441050.6447,62.8,저가,37.47162647,127.0423991,1.664791176,0,1,0,31.98888889,684675
175,컴포즈커피 장한평역사점,2024-02-23,영업/정상,,서울특별시 동대문구 장안동 472-3 장한평역,"서울특별시 동대문구 천호대로 지하 405, 장한평역 543-202 지하2층 (장안동)",205260.2397,451129.4648,35.62,저가,37.56242971,127.0574349,0.28555912,0,1,0,28.6,2169578
176,빽다방 군자역점,2023-07-28,영업/정상,,서울특별시 광진구 군자동 477-1 1층,"서울특별시 광진구 능동로35길 7, 1층 (군자동)",206868.0652,450482.5089,35,저가,37.55659024,127.0756267,0.432923473,2,0,3,34.24444444,3960535
177,빽다방 송정역점,2020-07-10,영업/정상,,서울특별시 강서구 공항동 45-39 (지상 1층),"서울특별시 강서구 공항대로 23, 1층 (공항동)",183130.9158,451068.2758,42.97,저가,37.5617375,126.8069704,0.312962715,1,2,2,42.04444444,1022345
178,메가엠지씨커피 보라매SK뷰점,2023-06-30,영업/정상,,서울특별시 영등포구 신길동 2093,"서울특별시 영등포구 신풍로17길 16, 1층 (신길동)",192563.4371,444356.6127,66,저가,37.50139092,126.9137978,0.406065411,1,0,0,41.93333333,230343
179,빽다방 구파발역 미켈란점,2017-02-17,영업/정상,,서울특별시 은평구 진관동 73 웅신미켈란의아침 101호,"서울특별시 은평구 진관2로 15-8 (진관동, 웅신미켈란의아침 101호)",192834.209,459225.6706,49.5,저가,37.6353614,126.9167134,0.294835507,1,1,0,32.74444444,1246937
180,드라이빙 앤 컴포즈커피 마포구청점,2023-06-16,폐업,2024-04-18,서울특별시 마포구 성산동 592-8,"서울특별시 마포구 모래내로1길 9, 1층 101호 (성산동)",191409.2407,451377.183,92.56,저가,37.56463562,126.9006623,0.214318426,1,1,2,60.1,38069
181,빽다방 용산한강로3가점,2023-08-01,영업/정상,,서울특별시 용산구 한강로3가 40-152,"서울특별시 용산구 한강대로15길 9, 1층 102호 (한강로3가)",196733.8915,447051.3874,23.8,저가,37.52569519,126.9609496,0.74203862,0,0,1,46.33333333,2341338
182,컴포즈커피 만리시장점,2023-08-02,영업/정상,,서울특별시 용산구 서계동 267-48,"서울특별시 용산구 효창원로 265-4, 1층 (서계동)",196711.1346,449844.7758,49,저가,37.55086334,126.9606794,0.503590461,0,0,0,34.24444444,2531449
183,컴포즈커피 서울여대학생누리관가은점,2023-08-02,영업/정상,,서울특별시 노원구 공릉동 126 서울여자대학교,"서울특별시 노원구 화랑로 621, 서울여자대학교 가은학생누리관 109호 (공릉동)",207918.3204,458383.9834,51.47,저가,37.62777288,127.0875976,0.891437141,0,0,1,30.91111111,8100042
184,컴포즈커피 신도림푸르지오점,2023-08-02,영업/정상,,서울특별시 구로구 신도림동 337 신도림1차푸르지오,"서울특별시 구로구 경인로 661, 신도림1차푸르지오 1층 161호 (신도림동)",190005.1325,445250.5389,25.68,저가,37.50942084,126.8848536,0.556968719,1,0,4,36.98888889,2255219
185,빽다방 송파사거리점,2021-03-05,영업/정상,,서울특별시 송파구 석촌동 295-10 금도빌딩,"서울특별시 송파구 가락로 113, 금도빌딩 1층 106호,107호 (석촌동)",209535.2939,444388.2631,69,저가,37.50165799,127.1057343,0.553672717,1,2,2,55.45555556,1204640
186,빽다방 양평구산드림타워점,2023-07-03,영업/정상,,서울특별시 영등포구 양평동4가 22-1 구산드림타워,"서울특별시 영등포구 선유로47길 15, 구산드림타워 1층 105호 (양평동4가)",190656.5478,448133.9221,76.91,저가,37.53540681,126.8921844,0.920036857,2,0,3,60.31111111,6754583
187,컴포즈커피 둔촌동약수터점,2023-09-21,영업/정상,,서울특별시 강동구 둔촌동 448,"서울특별시 강동구 진황도로 153, 1층 101호 (둔촌동)",212455.3107,447799.4981,61.5,저가,37.53235844,127.1388145,0.542816251,0,0,0,84.78888889,1558318
188,빽다방 관악인헌점,2024-06-07,영업/정상,,서울특별시 관악구 봉천동 1657-5,"서울특별시 관악구 남부순환로 1944, 1층 (봉천동)",196823.1252,441565.1412,33,저가,37.47626452,126.9619833,0.641315001,2,2,2,52.36666667,7140636
189,빽다방 종로르메이에르점,2023-08-04,영업/정상,,서울특별시 종로구 종로1가 24 르메이에르종로타운1,"서울특별시 종로구 종로 19, 르메이에르종로타운1 1층 108-1호 (종로1가)",198150.3004,452019.2126,30,저가,37.57045889,126.9769601,0.106738313,2,2,11,32.56666667,5092817
190,메가엠지씨커피 안암오거리점,2024-06-07,영업/정상,,서울특별시 동대문구 제기동 1152-12,"서울특별시 동대문구 약령시로 3, 1층 (제기동)",202591.7853,453388.5129,33,저가,37.58279463,127.0272403,0.411855337,0,1,5,40.93333333,3695572
191,빽다방 잠실방이점,2024-01-02,영업/정상,,서울특별시 송파구 방이동 35-2 쌩모리빌오피스텔,"서울특별시 송파구 올림픽로 350, 쌩모리빌오피스텔 1층 101호 (방이동)",209592.3296,445982.3247,40.67,저가,37.51601983,127.1063999,0.399499305,1,1,3,37.3,6567935
192,메가엠지씨커피 교대법원점,2023-11-15,영업/정상,,서울특별시 서초구 서초동 1695-1 1층,"서울특별시 서초구 서초중앙로26길 10, 1층 (서초동)",201204.439,443702.103,89.3,저가,37.49552354,127.0115186,0.531014416,1,1,5,55.45555556,18046572
193,메가엠지씨커피 서울교대사거리점,2023-09-22,영업/정상,,서울특별시 서초구 서초동 1624-1 영빌딩,"서울특별시 서초구 서초중앙로 72, 영빌딩 1층 101호 (서초동)",201247.7153,442893.4214,52.8,저가,37.48823727,127.0120067,0.528256687,2,2,3,45.97777778,1001620
194,컴포즈커피 강일리버파크점,2023-07-06,영업/정상,,서울특별시 강동구 강일동 675-1 강일타워,"서울특별시 강동구 아리수로93길 27, 강일타워 1층 109호 (강일동)",215277.5756,451505.0074,37.44,저가,37.56570239,127.1708216,1.011640471,1,2,0,30.91111111,248692
195,메가엠지씨커피 옥수역점,2013-08-01,영업/정상,,서울특별시 성동구 옥수동 365-20 지상1층,"서울특별시 성동구 한림말5길 9, 지상1층 (옥수동)",201409.8015,448863.0558,94.67,저가,37.54202324,127.0138503,0.410543751,0,0,1,36.55555556,617578
196,메가엠지씨커피 송파거여마을점,2024-02-27,영업/정상,,서울특별시 송파구 거여동 293-1 세신거여훼미리타운,"서울특별시 송파구 양산로 12, 세신거여훼미리타운 1층 101, 102호 (거여동)",212631.9687,443089.5432,55.12,저가,37.48991962,127.1407327,0.494608017,0,0,0,28.6,2597190
197,컴포즈커피 중계브라운스톤점,2015-01-23,영업/정상,,"서울특별시 노원구 중계동 506 브라운스톤중계상가 171,172호","서울특별시 노원구 동일로203가길 29, 171,172호 (중계동, 브라운스톤중계상가)",205601.926,459732.1286,49.64,저가,37.63993623,127.0613672,0.587464106,2,0,0,26.58888889,192966
198,컴포즈커피 우장산숲아이파크점,2024-01-03,영업/정상,,서울특별시 강서구 화곡동 1031-1 섬유유통노련회관,"서울특별시 강서구 강서로 200, 섬유유통노련회관 1층 좌측호 (화곡동)",185655.0963,449112.0064,127.05,저가,37.54415468,126.8355779,0.563182151,1,0,2,47.12222222,6751694
199,메가엠지씨커피 여의대교점,2023-09-25,영업/정상,,서울특별시 영등포구 여의도동 41-1,"서울특별시 영등포구 국제금융로7길 22, 1층 103호 (여의도동)",194015.1805,446777.4545,27,저가,37.52321326,126.9301958,0.287523444,0,1,0,64.44444444,6362499
200,빽다방 구로구청점,2024-02-27,영업/정상,,서울특별시 구로구 구로동 431-3,"서울특별시 구로구 가마산로21길 1, 1층 (구로동)",189826.8239,443534.9358,28,저가,37.49396135,126.8828607,0.963991733,0,1,3,34.24444444,4967481
201,메가엠지씨커피논현가구거리점,2023-09-26,영업/정상,,서울특별시 강남구 논현동 141-17,"서울특별시 강남구 학동로4길 8, 지상1층 101호 (논현동)",201950.9637,445408.6247,44.8,저가,37.51089805,127.0199648,0.774433734,1,1,4,50.4,9973597
202,컴포즈커피 구로거리공원점,2023-08-11,영업/정상,,서울특별시 구로구 구로동 107-3 나라키움 구로 복합관사,"서울특별시 구로구 공원로 21, 나라키움 구로 복합관사 1층 103호 (구로동)",190324,444085.5439,52.1,저가,37.4989277,126.8884755,0.622637548,0,1,1,70.85555556,1196632
203,메가엠지씨커피대학로중앙점,20211014,영업/정상,,서울특별시 종로구 혜화동 185 중원빌딩 1층 101호,"서울특별시 종로구 대학로 144, 중원빌딩 1층 101호 (혜화동)",200121.8137,453518.0073,167.4,저가,37.58396482,126.9992768,0.302551218,1,2,13,40.75555556,1666179
204,메가엠지씨커피 신림신원점,2024-01-04,영업/정상,,서울특별시 관악구 신림동 1604-41,"서울특별시 관악구 신원로 13-1, 1층 (신림동)",193534.1159,442053.5753,36.58,저가,37.48064794,126.9247957,0.54844076,1,2,0,37.3,2995241
205,메가엠지씨커피 청량리롯데캐슬점,2024-01-04,영업/정상,,서울특별시 동대문구 전농동 620-47 청량리역 롯데캐슬 SKY-L65,"서울특별시 동대문구 답십리로 27, 1층 109호 (전농동, 청량리역 롯데캐슬 SKY-L65)",203917.4627,452951.9985,29.7,저가,37.5788571,127.0422465,0.349800845,3,0,3,28.6,254264
206,메가엠지씨커피 양재이마트점,2023-05-03,영업/정상,,서울특별시 서초구 양재동 215 하이브랜드 지하1층 101호,"서울특별시 서초구 매헌로 16, 하이브랜드 지하1층 101호 (양재동)",203204.7556,440136.7812,33.3,저가,37.4633953,127.0341234,2.378598034,0,0,1,70.85555556,811878
207,컴포즈커피 강서우림블루나인점,2023-09-27,영업/정상,,서울특별시 강서구 염창동 240-21 우림블루나인비즈니스센터 A동 107호,"서울특별시 강서구 양천로 583, 우림블루나인비즈니스센터 A동 1층 107호 (염창동)",187952.56,450562.0202,55.93,저가,37.55725217,126.8615509,2.388979609,2,0,2,26.26666667,7769014
208,메가엠지씨커피 구로대륭포스트8차점,2024-06-10,영업/정상,,서울특별시 구로구 구로동 235-3,"서울특별시 구로구 디지털로26길 43, 1층 109호 (구로동)",190586.0197,442101.6855,49.03,저가,37.48105588,126.8914641,0.666099593,3,1,1,32.56666667,343435
209,메가엠지씨커피 당고개역점,2023-11-17,영업/정상,,서울특별시 노원구 상계동 111 당고개역 1층 409-028-03호,"서울특별시 노원구 상계로 305, 당고개역 1층 409-028-03호 (상계동)",206929.6036,463137.3363,85,저가,37.67060731,127.0764419,0.254382729,0,1,1,26.26666667,4149755
210,메가엠지씨커피 한성백제역점,2023-07-24,영업/정상,,서울특별시 송파구 방이동 51-4 효성올림픽카운티,"서울특별시 송파구 백제고분로 497, 1층 103호 (방이동, 효성올림픽카운티)",210051.8363,445861.0947,57,저가,37.5149227,127.1115959,0.240645337,2,0,4,70.85555556,6567935
211,메가엠지씨커피 하계온천점,2023-08-17,영업/정상,,서울특별시 노원구 하계동 251-4 인정빌딩,"서울특별시 노원구 노원로 257, 인정빌딩 104호 (하계동)",206350.4934,459768.6817,88.71,저가,37.64026075,127.0698488,0.568911019,1,1,1,55.45555556,1135496
212,컴포즈커피 서울대신양학술정보관3점,2017-04-21,영업/정상,,서울특별시 관악구 신림동 산 56-1,"서울특별시 관악구 관악로 1, 16-1동 2층 (신림동, 신양학술정보관3)",196139.865,439023.1671,214.38,저가,37.45335859,126.9542723,3.033389346,1,0,1,55.45555556,2952781
213,컴포즈커피 송파풍납점,2024-01-05,영업/정상,,서울특별시 송파구 풍납동 406-1 태양상가,"서울특별시 송파구 토성로 65, 태양상가 1층 110,111호 (풍납동)",210305.2229,447416.9489,50.4,저가,37.52893807,127.1144837,0.677936851,1,0,0,47.12222222,5591975
214,컴포즈커피 천호2동점,2024-02-28,영업/정상,,서울특별시 강동구 천호동 357-12 오송빌딩,"서울특별시 강동구 올림픽로 686, 오송빌딩 1층 2호 (천호동)",210986.406,448919.2264,49.5,저가,37.54246565,127.1222124,0.44180706,1,2,2,34.18888889,5284477
215,빽다방 오류동역북부점,2023-11-20,영업/정상,,서울특별시 구로구 오류동 55-51,"서울특별시 구로구 경인로 214, 1층 우측호 (오류동)",186198.7148,443783.568,29.77,저가,37.4961542,126.8418297,1.045968533,2,1,3,58.21111111,2945616
216,메가엠지씨커피 금천박미삼거리점,2024-02-28,영업/정상,,서울특별시 금천구 시흥동 985-8 신라상가,"서울특별시 금천구 시흥대로 149, 신라상가 1층 102,103호 (시흥동)",191341.2387,438365.6132,87.94,저가,37.4474012,126.9000468,3.905282696,1,1,1,58.21111111,292126
217,메가엠지씨커피 잠실본동점,2023-10-04,영업/정상,,서울특별시 송파구 잠실동 294-25,"서울특별시 송파구 백제고분로12길 4, 1층 (잠실동)",207093.3612,444858.7572,56.1,저가,37.50591894,127.0781227,0.691273882,0,1,1,28.6,3656103
218,컴포즈커피 동대문역사공원역점,2023-08-22,영업/정상,,서울특별시 중구 을지로6가 18-103,"서울특별시 중구 을지로43길 34, 1층 2호 (을지로6가)",200603.1969,451701.5505,49.5,저가,37.56759862,127.0047255,0.42924743,3,2,8,34.24444444,4110785
219,컴포즈커피 두타몰점,2023-08-22,영업/정상,,서울특별시 중구 을지로6가 18-12 두산타워빌딩,"서울특별시 중구 장충단로 275, 두산타워빌딩 지1층 41호 (을지로6가)",200703.6256,451836.4583,59.5,저가,37.56881406,127.0058624,0.374318676,4,2,6,44.73333333,4110785
220,메가엠지씨커피 송정역점,2023-11-20,영업/정상,,서울특별시 강서구 공항동 53-41 1층,"서울특별시 강서구 공항대로 28, 1층 (공항동)",183166.3433,450992.8719,49,저가,37.56105877,126.8073731,0.280067477,1,1,2,44.73333333,1022345
221,빽다방영등포구청역점,2016-07-12,영업/정상,,서울특별시 영등포구 당산동3가 378 1층,"서울특별시 영등포구 당산로 113, 1층 (당산동3가)",190748.2326,446965.3943,30.94,저가,37.52487939,126.8932365,0.110427226,0,1,2,55.45555556,7306631
222,빽다방 종로숭인대경점,2023-08-18,영업/정상,,서울특별시 종로구 숭인동 1385 대경빌딩,"서울특별시 종로구 난계로 255, 대경빌딩 1층 (숭인동)",201948.5604,452449.498,16.26,저가,37.57433577,127.0199557,0.261467735,0,3,3,46.33333333,1768964
223,빽다방 왕십리텐즈힐점,2023-08-18,영업/정상,,서울특별시 성동구 상왕십리동 811 텐즈힐,"서울특별시 성동구 마장로 137, 221동 1층 1111호 (상왕십리동, 텐즈힐)",202113.8696,451897.5819,54.77,저가,37.56936272,127.0218255,0.463700002,0,0,0,43.78888889,3032919
224,메가엠지씨커피 천호시장점,2023-11-21,영업/정상,,서울특별시 강동구 천호동 393-4,"서울특별시 강동구 구천면로 252, 1층 (천호동)",211559.4724,448948.5826,56,저가,37.54272318,127.1286972,0.565776404,0,2,0,26.58888889,3644599
225,빽다방 중랑구청점,2023-08-21,영업/정상,,서울특별시 중랑구 신내동 666 신아타운,"서울특별시 중랑구 봉화산로 194, 신아타운 104호 (신내동)",208295.0998,456014.9992,5.46,저가,37.60642552,127.0918392,1.119286989,0,1,1,47.67777778,8587307
226,빽다방 사당네스코점,2023-08-22,영업/정상,,서울특별시 관악구 남현동 1058-16,"서울특별시 관악구 남부순환로 2064, 네스코N타워 104호 (남현동)",197989.5505,441573.6676,67.98,저가,37.4763447,126.97517,0.105924608,2,1,2,50.4,3375480
227,메가엠지씨커피 동작대방점,2023-08-23,영업/정상,,서울특별시 동작구 대방동 17-21,"서울특별시 동작구 등용로 86-1, 1층 (대방동)",193947.2286,445199.4894,59.2,저가,37.50899541,126.9294402,1.050023455,0,0,0,28.6,868775
228,빽다방 전농동전동초교점,2023-08-23,영업/정상,,서울특별시 동대문구 전농동 38-112,"서울특별시 동대문구 사가정로 145, 1층 (전농동)",205317.4983,452868.4823,57,저가,37.57809771,127.0580954,1.080607414,0,1,0,69.35555556,1969038
229,메가엠지씨커피 성북구청사거리점,2023-11-24,영업/정상,,서울특별시 성북구 동소문동4가 271 동문빌딩,"서울특별시 성북구 동소문로 69, 동문빌딩 1층 (동소문동4가)",201072.2737,454403.5333,71.13,저가,37.59194273,127.0100387,0.574352501,0,1,0,36.55555556,5992134
230,메가엠지씨커피 화곡중앙시장점,2022-01-25,영업/정상,,서울특별시 강서구 화곡동 362-86 1층,"서울특별시 강서구 가로공원로76길 73, 1층 (화곡동)",185660.9288,447983.117,69.4,저가,37.5339836,126.835666,0.924369843,2,0,0,46.53333333,942965
231,메가엠지씨커피 선릉한신인터밸리점,2024-02-29,영업/정상,,서울특별시 강남구 역삼동 707-34 한신인터밸리24,"서울특별시 강남구 테헤란로 322, 한신인터밸리24 지상2층 321호 (역삼동)",204044.7899,444529.8404,49.2,저가,37.50297357,127.0436423,0.506192861,2,1,6,70.4,7954478
232,빽다방 창동에이치큐브병원점,2024-02-29,영업/정상,,서울특별시 도봉구 창동 731-1 에이치큐브병원 1층,"서울특별시 도봉구 도봉로 604, 에이치큐브병원 1층 (창동)",203556.6616,461771.0544,63.21,저가,37.6583165,127.038204,1.056925128,1,1,1,47.12222222,5128767
233,컴포즈커피건대스타시티몰점,2023-11-23,영업/정상,,서울특별시 광진구 화양동 4-20 스타시티영존빌딩,"서울특별시 광진구 능동로 110, 스타시티영존빌딩 지하2층 B213호 (화양동)",206241.8202,448715.07,26.45,저가,37.54067019,127.0685244,0.039179547,0,2,5,43.41111111,7392598
234,메가엠지씨커피 가로수길점,2023-11-23,영업/정상,,서울특별시 강남구 신사동 536-18,"서울특별시 강남구 가로수길 19, 지상1층 (신사동)",201960.4026,446327.9964,42.9,저가,37.51918154,127.0200739,0.128731924,1,1,2,37.3,218778
235,컴포즈커피 고척중앙점,2023-11-23,영업/정상,,서울특별시 구로구 개봉동 108-4,"서울특별시 구로구 고척로27길 111, 1층 (개봉동)",186230.7966,444951.0705,90,저가,37.50667382,126.8421705,1.64353208,0,0,0,46.7,2726133
236,메가엠지씨커피 숙명여대점,2023-08-25,영업/정상,,서울특별시 용산구 청파동3가 109-20,"서울특별시 용산구 청파로47길 41, 1층 (청파동3가)",197106.1173,449143.3489,85.95,저가,37.54454489,126.9651521,0.609096254,1,0,2,26.26666667,5112800
237,메가엠지씨커피 서초3동점,2023-08-25,영업/정상,,서울특별시 서초구 서초동 1459-2 와라빌딩,"서울특별시 서초구 반포대로 38, 와라빌딩 1층 (서초동)",200984.4119,442413.0823,30,저가,37.48390971,127.0090289,0.650423385,0,2,3,70.85555556,2208931
238,메가엠지씨커피 압구정현대점,2024-03-04,영업/정상,,서울특별시 강남구 신사동 615 현대종합상가빌딩,"서울특별시 강남구 압구정로 214, 현대종합상가 지상1층 101호 (신사동)",202650.144,447301.7157,45.82,저가,37.52795302,127.0278796,0.491899059,1,0,1,28.6,8336361
239,메가엠지씨커피 도봉산입구점,2024-01-05,영업/정상,,서울특별시 도봉구 도봉동 280-4,"서울특별시 도봉구 도봉산4길 4-13, 1층,2층 (도봉동)",203724.0601,465029.0084,193.36,저가,37.6876691,127.0401175,0.595986268,1,1,1,37.3,6200191
240,빽다방 금천롯데캐슬점,2023-08-28,영업/정상,,서울특별시 금천구 독산동 1155 금천롯데캐슬골드파크3차,"서울특별시 금천구 시흥대로 291, 310동 지하1층 B16호 (독산동, 금천롯데캐슬골드파크3차)",190838.3248,439761.362,49.74,저가,37.45997208,126.894346,2.42535646,2,0,1,51.66666667,1129016
241,메가엠지씨커피 공항시장역점,2024-01-05,영업/정상,,서울특별시 강서구 방화동 614-60,"서울특별시 강서구 방화동로 49-1, 1층 (방화동)",183276.9082,451450.4557,70.47,저가,37.56518355,126.8086141,0.444411766,1,1,0,46.33333333,1842615
242,메가엠지씨커피 서초우면중앙점,2023-08-28,영업/정상,,"서울특별시 서초구 우면동 66-2 116호, 117호","서울특별시 서초구 바우뫼로7길 8, 116호, 117호 (우면동)",202175.0111,440963.7591,32.68,저가,37.47084932,127.0224862,1.657164891,0,1,0,70.85555556,1738027
243,빽다방 북가좌점,2023-10-06,영업/정상,,서울특별시 서대문구 북가좌동 280-12,"서울특별시 서대문구 증가로 226, 1층 (북가좌동)",192366.487,453276.9464,54,저가,37.58176073,126.911477,0.279973046,1,0,3,63.37777778,4145258
244,메가엠지씨커피 석계중앙점,2023-10-06,영업/정상,,서울특별시 성북구 석관동 133-62 선우빌딩,"서울특별시 성북구 한천로78길 71, 선우빌딩 1층 (석관동)",205663.2696,456802.9444,23.1,저가,37.61354453,127.0620398,0.462452966,1,1,1,47.67777778,1458216
245,빽다방 서원역점,2023-10-06,영업/정상,,서울특별시 관악구 신림동 92-359,"서울특별시 관악구 신림로 264, 1층 (신림동)",193987.7809,441834.7042,27.6,저가,37.478679,126.9299266,0.634420822,1,2,0,36.16666667,3560125
246,메가엠지씨커피 이태원점,2023-08-30,영업/정상,,서울특별시 용산구 이태원동 124-5,"서울특별시 용산구 이태원로 195, 1층 (이태원동)",199547.5101,448064.0564,40,저가,37.53482515,126.9927787,0.167857173,0,1,7,47.12222222,8431787
247,컴포즈커피 전농중앙점,2021-12-21,영업/정상,,서울특별시 동대문구 답십리동 97-18,"서울특별시 동대문구 전농로 114, 1층 (답십리동)",205037.3338,452534.865,71,저가,37.57509342,127.0549215,0.919593173,1,2,1,28.6,5100272
248,빽다방 장위뉴타운점,2021-04-07,영업/정상,,서울특별시 성북구 장위동 270-367 지하1층~지상1층,"서울특별시 성북구 장월로 140, 지하1층~지상1층 (장위동)",204406.868,457242.117,89.14,저가,37.61750818,127.0478124,1.086758159,1,1,1,50.4,2417141
249,빽다방 목동우성점,2023-08-31,영업/정상,,서울특별시 양천구 신정동 203-7,"서울특별시 양천구 목동남로 46, 지상1층 2,3호 (신정동)",187971.5615,445180.4087,58,저가,37.50876458,126.8618545,0.543915628,1,1,0,55.45555556,2622793
250,빽다방 화곡중앙시장점,2024-04-19,영업/정상,,서울특별시 강서구 화곡동 362-87,"서울특별시 강서구 가로공원로76길 75, 1층 우측호 (화곡동)",185669.0551,447966.4024,56,저가,37.53383313,126.8357583,0.935105536,2,0,0,55.45555556,942965
251,메가엠지씨커피 성북세무서점,2023-10-10,영업/정상,,서울특별시 성북구 삼선동3가 1,"서울특별시 성북구 삼선교로16길 1, 1층 (삼선동3가)",200863.8509,453999.9354,96.85,저가,37.58830658,127.0076784,0.168822836,0,3,1,36.16666667,2642581
252,빽다방 강동비즈밸리점,2023-10-10,영업/정상,,서울특별시 강동구 고덕동 343-2 강동U1센터,"서울특별시 강동구 고덕비즈밸리로 26, 강동U1센터 1층 B-117호 (고덕동)",214075.1404,451485.8096,43,저가,37.56554848,127.1572111,1.158473822,2,0,1,45.97777778,1208061
253,메가엠지씨커피 강동U1센터점,2023-10-10,영업/정상,,서울특별시 강동구 고덕동 343-2 강동U1센터,"서울특별시 강동구 고덕비즈밸리로 26, 강동U1센터 1층 A-128호 (고덕동)",214075.1404,451485.8096,45.36,저가,37.56554848,127.1572111,1.158473822,2,0,1,44.73333333,1208061
254,컴포즈커피 북한산보국문점,2022-11-03,영업/정상,,서울특별시 성북구 정릉동 289-33,"서울특별시 성북구 보국문로 86, 1층 102호 (정릉동)",200688.4286,456624.4313,40,저가,37.61195298,127.0056944,1.749778505,1,0,0,56.72222222,805418
255,컴포즈커피 약수더시티점,2021-10-01,영업/정상,,서울특별시 중구 신당동 857,"서울특별시 중구 동호로7길 14, 104호 (신당동, 약수역 더시티)",200873.8253,450103.321,34.63,저가,37.55319855,127.007787,0.295456182,3,1,4,60.31111111,1697718
256,컴포즈커피,2020-10-30,영업/정상,,서울특별시 중구 신당동 120-1,"서울특별시 중구 퇴계로80길 1, 1층 101,102호 (신당동)",201520.5758,451447.1113,69.71,저가,37.56530516,127.0151089,0.263127733,2,0,1,46.33333333,4003744
257,빽다방 대흥역점,2023-11-27,영업/정상,,서울특별시 마포구 대흥동 803 동양엔파트,"서울특별시 마포구 대흥로 79, 상가동 지1층 106호 (대흥동, 동양엔파트)",194681.8521,449496.5654,33.99,저가,37.54771638,126.9377175,0.410936016,1,1,1,36.55555556,1945202
258,메가엠지씨커피 신림양지병원점,2023-11-27,영업/정상,,서울특별시 관악구 신림동 1410-14,"서울특별시 관악구 남부순환로 1649, 1층 102호 (신림동)",194090.5762,442540.4356,27,저가,37.48503832,126.9310831,0.205527504,0,0,0,26.26666667,16857941
259,메가엠지씨커피 신내시티프라디움점,2023-11-27,영업/정상,,서울특별시 중랑구 망우동 584,"서울특별시 중랑구 용마산로 670, CB106호 (망우동)",208947.0723,456501.7351,55.86,저가,37.61080485,127.0992286,0.407530759,1,0,0,46.33333333,182956
260,메가엠지씨커피 도봉보건소점,2023-11-28,영업/정상,,서울특별시 도봉구 쌍문동 41-3,"서울특별시 도봉구 방학로3길 122, 1층 2호 (쌍문동)",203304.6249,461732.3158,66,저가,37.6579684,127.0353476,0.991157463,2,1,1,51.66666667,5128767
261,컴포즈커피 하계타운점,2024-01-10,영업/정상,,서울특별시 노원구 하계동 213-1 1층 좌측호,"서울특별시 노원구 한글비석로1길 67, 1층 좌측호 (하계동)",206131.0666,459816.22,83.6,저가,37.64069053,127.0673631,0.524965338,2,1,0,40.75555556,1135496
262,메가엠지씨커피 망우금란점,2023-10-13,영업/정상,,서울특별시 중랑구 망우동 209-27,"서울특별시 중랑구 망우로 467, 1층 106호 (망우동)",209113.8691,455385.8746,66,저가,37.60074953,127.1011039,1.338240022,0,1,1,34.24444444,3308470
263,빽다방 은평DYB점,2023-10-16,영업/정상,,서울특별시 은평구 응암동 338-78 동양빌딩,"서울특별시 은평구 가좌로 204, 동양빌딩 1층 (응암동)",192783.7591,454064.5106,30.92,저가,37.58885995,126.9161932,0.361965138,1,2,0,43.78888889,1726778
264,빽다방 청량리우남SL타워점,2024-04-19,영업/정상,,서울특별시 동대문구 전농동 620-15 청량리역 우남SL타워300,"서울특별시 동대문구 왕산로 186, 청량리역 우남SL타워300 1층 111호 (전농동)",203816.673,453023.129,33.6,저가,37.5794984,127.0411059,0.435069038,4,0,2,46.53333333,1426108
265,메가엠지씨커피 영등포아이비밸리점,2023-11-30,영업/정상,,서울특별시 영등포구 영등포동6가 145,"서울특별시 영등포구 영신로 166, 1층 119,120호 (영등포동6가)",191287.2208,446748.7525,59.4,저가,37.52293274,126.8993365,0.34758212,1,2,1,70.85555556,2389831
266,메가엠지씨커피 관악남현점,2023-11-30,영업/정상,,서울특별시 관악구 남현동 1057-23,"서울특별시 관악구 남부순환로 2060, 1층 101호 (남현동)",197940.3839,441577.2223,63.44,저가,37.47637661,126.9746142,0.154677765,2,1,1,42.04444444,3375480
267,메가엠지씨커피 광진군자로점,2023-12-01,영업/정상,,서울특별시 광진구 군자동 363-2,"서울특별시 광진구 군자로 86, 1층 (군자동)",206222.936,449832.9075,85,저가,37.55074193,127.0683201,0.639120315,2,1,1,47.12222222,8158045
268,메가엠지씨커피 금천구립시흥도서관점,2024-01-11,영업/정상,,서울특별시 금천구 시흥동 1011,"서울특별시 금천구 금하로 750, 관악우방아파트 상가1동 108호 (시흥동)",192297.916,438580.1482,51.75,저가,37.44934269,126.9108559,4.07171219,0,0,0,91.44444444,1749190
269,컴포즈커피 은평서북병원점,2023-10-18,영업/정상,,서울특별시 은평구 구산동 190-8,"서울특별시 은평구 갈현로11길 12, 1층 (구산동)",191915.9514,455910.1023,66,저가,37.60548114,126.9063471,1.081029755,1,0,0,47.12222222,6697949
270,메가엠지씨커피 가산어반워크점,2024-06-12,영업/정상,,서울특별시 금천구 가산동 451-1 가산 어반워크I,"서울특별시 금천구 가산디지털2로 135, 가산 어반워크I 1동 105호 (가산동)",189161.5457,441988.7118,46.42,저가,37.48002229,126.8753607,0.600735037,4,1,2,47.12222222,4504033
271,메가엠지씨커피 양재말죽거리점,2024-03-05,영업/정상,,서울특별시 서초구 양재동 8-71 1층 101호,"서울특별시 서초구 남부순환로356길 33, 1층 101호 (양재동)",203311.511,442373.9283,42.07,저가,37.48355168,127.0353399,0.219964691,2,1,5,46.33333333,7699812
272,메가엠지씨커피(MEGA MGC COFFEE) 신월시영점,2024-03-05,영업/정상,,서울특별시 양천구 신월동 994-3,"서울특별시 양천구 지양로 2, 1층 (신월동)",185640.7527,446100.807,99.17,저가,37.51702384,126.8354747,1.607724139,0,1,0,58.21111111,2222787
273,메가엠지씨커피 구로중앙유통단지점,2023-12-01,영업/정상,,서울특별시 구로구 구로동 1258 중앙유통단지,"서울특별시 구로구 경인로53길 15, 중앙유통단지 지하1층 B50,B53호 (구로동)",188840.5159,444306.7711,70.3,저가,37.50090411,126.8716959,1.398552338,0,0,0,34.88888889,297734
274,메가엠지씨커피 서울중랑우체국점,2024-04-22,영업/정상,,서울특별시 중랑구 상봉동 116-17 로젠하임 제1동 제101호,"서울특별시 중랑구 망우로 275, 제1층 제101호 (상봉동, 로젠하임)",207271.9955,454865.7915,36.02,저가,37.59607994,127.0802412,0.515648173,1,2,2,44.73333333,2198055
275,메가엠지씨커피 동대문종합시장점,2021-11-10,영업/정상,,서울특별시 종로구 종로6가 262-1 동대문종합시장 B동 6층 8호,"서울특별시 종로구 종로 266, 동대문종합시장 B동 6층 8호 (종로6가)",200542.2582,452057.1269,49.05,저가,37.57080236,127.004036,0.187537285,1,2,4,36.98888889,4110785
276,메가엠지씨커피 염창동점,2023-10-23,영업/정상,,서울특별시 강서구 염창동 264-13 한영빌딩,"서울특별시 강서구 양천로 698, 한영빌딩 1층 우측호 (염창동)",188731.0328,449747.0218,46.28,저가,37.54991903,126.8703738,2.702696689,0,1,0,82.53333333,8145401
277,컴포즈커피 상왕십리역점,2023-10-23,영업/정상,,서울특별시 성동구 하왕십리동 1070 센트라스,"서울특별시 성동구 왕십리로 410, L동 104호 (하왕십리동, 센트라스)",202372.912,451536.6809,36.42,저가,37.56611043,127.0247565,0.420150562,2,1,2,34.24444444,3032919
278,컴포즈커피 선유중앙점,2024-01-15,영업/정상,,서울특별시 영등포구 양평동4가 75,"서울특별시 영등포구 선유로49길 22, 1층 101호 (양평동4가)",190678.7518,448275.2015,63.9,저가,37.53667995,126.8924338,0.912485916,3,0,5,53.08888889,6754583
279,메가엠지씨커피 종로경희궁의아침점,2024-03-06,영업/정상,,서울특별시 종로구 내수동 73 경희궁의 아침 4단지,"서울특별시 종로구 새문안로3길 23, 경희궁의 아침 4단지 상가동 지상 1층 104호 (내수동)",197478.5375,452259.3348,21.84,저가,37.57262072,126.9693553,0.486861737,1,1,5,70.85555556,2438521
280,컴포즈커피 영등포시장역점,2021-03-04,영업/정상,,서울특별시 영등포구 영등포동7가 208 포레나 영등포,"서울특별시 영등포구 국회대로50길 20, 1층 126호 (영등포동7가, 포레나 영등포)",191586.6606,446798.453,39.46,저가,37.52338334,126.9027233,0.290905955,1,3,0,30.91111111,5611151
281,메가엠지씨커피 종로3가역점,2021-07-30,영업/정상,,서울특별시 종로구 묘동 204-1 1층,"서울특별시 종로구 돈화문로 27, 1층 (묘동)",199213.8384,452079.1027,42.98,저가,37.57100009,126.9889988,0.260615628,4,2,4,34.24444444,465769
282,컴포즈커피 시흥금천점,2023-10-25,영업/정상,,서울특별시 금천구 시흥동 985-13 삼흥빌딩,"서울특별시 금천구 시흥대로39길 11, 삼흥빌딩 1층 101호 (시흥동)",191307.0044,438307.4234,63,저가,37.44687658,126.8996606,3.945319596,1,1,1,26.26666667,292126
283,컴포즈커피 위례우성어반점,2023-10-24,영업/정상,,서울특별시 송파구 거여동 605-4,"서울특별시 송파구 위례송파로 77, 우성어반타워 1층 107호,108호 (거여동)",212530.1839,442594.7879,84.88,저가,37.48546327,127.1395734,1.000473981,1,0,0,58.21111111,3972990
284,메가엠지씨커피 대림역점,2022-12-07,영업/정상,,서울특별시 영등포구 대림동 706-1 88월드타워,"서울특별시 영등포구 도림로 144, 88월드타워 1층 103호 (대림동)",190918.9806,443464.0336,39.16,저가,37.49333398,126.8952117,0.149796839,1,1,2,30.91111111,7816113
285,빽다방 방학사거리점,2024-01-16,영업/정상,,서울특별시 도봉구 방학동 703-64,"서울특별시 도봉구 도봉로 679, 1층 (방학동)",203678.4538,462523.8876,58.74,저가,37.66509886,127.039588,1.556798518,2,2,2,64.44444444,4993763
286,컴포즈커피 동대입구역점,2024-01-16,영업/정상,,서울특별시 중구 장충동2가 187-22,"서울특별시 중구 동호로24길 27, 1,2층 (장충동2가)",200398.9556,450903.5971,61.16,저가,37.56040925,127.0024133,0.348337714,0,0,1,30.91111111,774389
287,메가엠지씨커피 석촌점,2021-01-18,영업/정상,,서울특별시 송파구 송파동 21-6,"서울특별시 송파구 백제고분로41길 6, 1층 (송파동)",209531.5801,444961.0178,80.97,저가,37.50681853,127.1056996,0.021348035,2,0,0,91.44444444,3731184
288,메가엠지씨커피 강남애비뉴점,2023-10-26,영업/정상,,서울특별시 서초구 서초동 1309-2 강남역 2차 I'PARK,"서울특별시 서초구 서초대로77길 59, 강남역 2차 I'PARK 1층 (서초동)",202051.7506,444454.4478,105.6,저가,37.50230073,127.0211022,0.854425278,3,1,15,69.35555556,14865818
289,메가엠지씨커피 개롱근린공원점,2024-06-13,영업/정상,,서울특별시 송파구 가락동 196 동궁리치웰아파트,"서울특별시 송파구 오금로44길 47, 102동 1층 107호 (가락동, 동궁리치웰아파트)",211661.8057,443541.7906,52.25,저가,37.49400705,127.1297699,0.525759421,2,0,0,34.24444444,1435070
290,메가엠지씨커피 양재역점,2023-12-07,영업/정상,,서울특별시 강남구 도곡동 957-11 극동스타클래스,"서울특별시 강남구 남부순환로 2615, 지상1층 101호 (도곡동, 극동스타클래스)",203092.722,442550.6346,53.23,저가,37.48514455,127.0328669,0.061160931,3,2,4,84.78888889,404592
291,메가엠지씨커피 래미안대치팰리스점,2023-12-06,영업/정상,,서울특별시 강남구 대치동 626 청실종합상가,"서울특별시 강남구 남부순환로 2917, 청실종합상가 지상1층 119호 (대치동)",205154.6381,443439.9816,35.87,저가,37.49314851,127.0561864,0.292302104,0,1,1,34.18888889,151769
292,메가엠지씨커피 영등포영일공원점,2023-12-08,영업/정상,,서울특별시 영등포구 영등포동 620-311,서울특별시 영등포구 도신로29사길 1 (영등포동),191512.3845,445326.557,66,저가,37.51012095,126.9019001,0.964185214,0,0,0,42.04444444,1037359
293,메가엠지씨커피 LG광화문빌딩점,2024-01-17,영업/정상,,서울특별시 종로구 신문로2가 92 LG광화문빌딩,"서울특별시 종로구 새문안로 58, LG광화문빌딩 지하1층 B104호 (신문로2가)",197413.2604,451896.0273,198.25,저가,37.56934718,126.9686176,0.384764477,1,1,5,47.12222222,2438521
294,메가엠지씨커피 종로3가역사거리점,2024-03-07,영업/정상,,서울특별시 종로구 묘동 169-1,"서울특별시 종로구 돈화문로11길 2, 1층 (묘동)",199160.1596,452271.277,23.1,저가,37.5727315,126.9883909,0.338983775,3,2,3,42.04444444,465769
295,컴포즈커피 일원맛의거리점,2023-12-11,영업/정상,,서울특별시 강남구 일원동 673-4,"서울특별시 강남구 양재대로35길 6, 지상1층 101호 (일원동)",207330.5708,443103.4711,23,저가,37.49010201,127.0807881,0.409957724,2,0,0,51.66666667,828385
296,메가엠지씨커피 서울갈현초점,2022-11-29,영업/정상,,서울특별시 은평구 갈현동 451-1,"서울특별시 은평구 갈현로 260, 1층 (갈현동)",192533.2457,457523.0596,72,저가,37.62001883,126.9133213,0.553380173,2,2,0,41.93333333,3813780
297,빽다방 퍼블릭가산점,2024-03-08,영업/정상,,서울특별시 금천구 가산동 60-26,"서울특별시 금천구 디지털로 178, 현대지식산업센터 가산퍼블릭 M135호 (가산동)",189930.5079,441616.4607,30.45,저가,37.47667705,126.8840596,0.35791929,2,1,7,42.04444444,2645419
298,컴포즈커피(구산역점),2021-12-02,영업/정상,,서울특별시 은평구 대조동 224-18,"서울특별시 은평구 연서로 144, 1층 (대조동)",192656.1168,456593.9995,31,저가,37.61164918,126.9147224,0.155060927,2,1,4,42.04444444,2915719
299,메가엠지씨커피 서울중계초점,2023-12-13,영업/정상,,"서울특별시 노원구 중계동 434-21 1층 106,107,108호","서울특별시 노원구 덕릉로 663, 1층 106,107,108호 (중계동)",206506.6148,461601.7444,67.8,저가,37.65677511,127.0716339,0.507557786,0,0,0,42.04444444,368375
300,메가엠지씨커피 서울명지초점,2023-12-13,영업/정상,,서울특별시 서대문구 홍은동 398-10,"서울특별시 서대문구 가좌로 102, 1층 (홍은동)",193466.6121,453294.8292,63,저가,37.58193039,126.9239316,1.296745407,2,0,0,42.04444444,7127864
301,컴포즈커피(COMPOSE COFFE) 수색DMC파인시티자이점,2023-08-04,영업/정상,,서울특별시 은평구 수색동 359-9,"서울특별시 은평구 은평터널로 15, BL우동 1층 125호 (수색동)",190615.9022,453625.2394,38.84,저가,37.5848825,126.8916538,1.240627516,0,0,0,46.53333333,102400
302,메가엠지씨커피 은평대조점,2023-04-07,영업/정상,,서울특별시 은평구 대조동 187-54,"서울특별시 은평구 통일로 809, 1층 (대조동)",193208.2419,457083.7504,52.7,저가,37.61606602,126.9209711,0.339703877,0,1,0,45.63333333,7807971
303,컴포즈커피 은평서부병원점,2023-03-15,영업/정상,,서울특별시 은평구 응암동 88-14 두성빌딩,"서울특별시 은평구 응암로 331, 두성빌딩 1층 (응암동)",193051.2022,455393.9054,49.58,저가,37.60083965,126.9192086,0.467327576,1,1,5,36.55555556,2487936
304,컴포즈 역촌중앙점,2021-11-02,영업/정상,,서울특별시 은평구 대조동 179-8,"서울특별시 은평구 서오릉로 86, 1층 101, 102, 103호 (대조동)",193024.8613,456175.3444,66,저가,37.60788008,126.9189028,0.424279523,0,1,0,26.26666667,1843133
305,컴포즈커피 역촌점,2021-10-20,영업/정상,,서울특별시 은평구 역촌동 34-1,"서울특별시 은평구 진흥로1길 29, 1층 (역촌동)",192724.739,455640.0756,60,저가,37.60305506,126.9155092,0.518929205,1,0,0,55.45555556,6393625
306,빽다방 광진이튼1차점,2024-03-08,영업/정상,,서울특별시 광진구 자양동 510-5 이튼타워리버1차,"서울특별시 광진구 능동로 68, 1층 114호 (자양동, 이튼타워리버1차)",206088.8522,448297.9639,44,저가,37.53691311,127.0667901,0.466003911,1,2,4,34.88888889,353172
307,메가엠지씨커피 홍제인왕사거리점,2024-03-08,영업/정상,,서울특별시 서대문구 홍제동 96-2,"서울특별시 서대문구 통일로 389-1, 1층 (홍제동)",195363.327,453588.856,52.74,저가,37.58459116,126.9454029,0.344758549,0,1,2,32.56666667,298106
308,빽다방 수유사거리점,2023-12-14,영업/정상,,서울특별시 강북구 수유동 7-4,"서울특별시 강북구 수유로 84, 1층 (수유동)",201946.3111,459304.7718,19.8,저가,37.63610059,127.0199479,0.758689146,1,1,2,46.53333333,19405635
309,컴포즈커피 중계중앙점,2023-12-14,영업/정상,,서울특별시 노원구 중계동 423-40 태인빌딩,"서울특별시 노원구 덕릉로73길 18, 태인빌딩 1층 104호 (중계동)",206324.596,461091.9134,56.19,저가,37.65218292,127.0695668,0.767832889,0,1,0,45.63333333,6645099
310,메가엠지씨커피 고덕베네루체점,2023-12-14,영업/정상,,서울특별시 강동구 상일동 514 고덕 롯데캐슬 베네루체(상가B동),"서울특별시 강동구 구천면로 636, 고덕 롯데캐슬 베네루체(상가B동) 1층 101호 (상일동)",214746.8427,449675.198,40.5,저가,37.54922466,127.1647777,0.808705609,0,0,0,47.12222222,3510859
311,빽다방 오목교중앙점,2023-12-07,영업/정상,,서울특별시 양천구 목동 933 목동삼익아파트,"서울특별시 양천구 목동동로12길 45, 상가동 1층 1호 (목동, 목동삼익아파트)",189021.7979,446740.5764,100.64,저가,37.52283476,126.8737094,0.206696048,2,1,5,51.66666667,7750066
312,컴포즈커피 석촌호수점,2023-05-18,폐업,2024-06-14,서울특별시 송파구 석촌동 1 그랜드빌딩,"서울특별시 송파구 삼학사로 100, 그랜드빌딩 1층 101호 (석촌동)",208551.9476,444890.678,52.89,저가,37.50619429,127.0946193,0.46900762,1,0,1,36.55555556,2850443
313,메가엠지씨커피 건대동문회관점,2024-01-22,영업/정상,,서울특별시 광진구 자양동 227-6,"서울특별시 광진구 아차산로 290, 1층 (자양동)",206568.812,448460.0034,49.5,저가,37.53836982,127.072222,0.278116127,2,1,4,69.35555556,7392598
314,빽다방 이대점,2024-01-22,영업/정상,,서울특별시 서대문구 대현동 54-8,"서울특별시 서대문구 이화여대길 28, 1층 101,102,103호 (대현동)",195153.57,450653.6986,49.5,저가,37.55814467,126.9430478,0.339402535,3,2,7,34.24444444,445685
315,메가엠지씨커피 남구로역점,2024-06-14,영업/정상,,서울특별시 구로구 가리봉동 89-2,"서울특별시 구로구 디지털로27길 131, 1층 (가리봉동)",189925.5377,442513.949,60,저가,37.48476337,126.883991,0.317909251,1,0,0,34.18888889,9248055
316,메가엠지씨커피 연남하늘채점,2024-04-30,영업/정상,,서울특별시 마포구 연남동 573 코오롱하늘채아파트,"서울특별시 마포구 연남로 42, 코오롱하늘채아파트 상가비동 1층 101호 (연남동)",192899.6057,451360.661,32.59,저가,37.56449955,126.9175313,1.060352531,0,0,0,46.33333333,11768611
317,메가엠지씨커피 덕성여대점,2024-03-12,영업/정상,,서울특별시 도봉구 쌍문동 423-2 쌍문동 덕성여대역리가 빌딩,"서울특별시 도봉구 삼양로 538-5, 1층 103호 (쌍문동, 쌍문동 덕성여대역리가 빌딩)",201112.008,460988.1481,62.09,저가,37.65126875,127.0104981,1.948777011,0,0,1,45.63333333,4144696
318,빽다방 대치사거리점,2024-01-24,영업/정상,,서울특별시 강남구 대치동 913-11 CMS S,"서울특별시 강남구 삼성로 345, CMS S 지상1층 101호 (대치동)",205119.3604,444456.0857,31.35,저가,37.50230379,127.0557945,0.600829531,2,0,2,55.45555556,5835454
319,컴포즈커피 보라매롯데낙천대점,2024-06-17,영업/정상,,서울특별시 동작구 신대방동 713 보라매롯데낙천대아파트,"서울특별시 동작구 여의대방로10길 38, 상가동 지하10호 (신대방동, 보라매롯데낙천대아파트)",192295.1363,443573.3371,39.6,저가,37.4943314,126.9107719,0.675642796,1,0,0,47.12222222,111272
320,컴포즈커피 잠실레이크팰리스점,2022-10-27,폐업,2024-01-25,서울특별시 송파구 삼전동 22,"서울특별시 송파구 석촌호수로 134, 113호 (삼전동)",208064.6287,444995.651,46.28,저가,37.50714444,127.089109,0.362878564,1,0,3,46.7,3656103
321,메가엠지씨커피 묵동장미점,2024-06-17,영업/정상,,서울특별시 중랑구 묵동 250-41 유림빌딩,"서울특별시 중랑구 동일로 843, 유림빌딩 1층 (묵동)",206853.1074,455922.9289,66,저가,37.60560775,127.0755078,0.534168764,2,0,0,46.7,1248836
322,메가엠지씨커피 이대역사거리점,2024-04-29,영업/정상,,서울특별시 마포구 대흥동 12-20,"서울특별시 마포구 신촌로 176, 1층 101호,102호,B02호 (대흥동)",195088.1045,450469.837,110,저가,37.55648774,126.9423081,0.205861805,5,2,7,45.51111111,4369452
323,메가엠지씨커피 명일솔베뉴점,2024-01-29,영업/정상,,서울특별시 강동구 명일동 289,"서울특별시 강동구 구천면로 429, 1층 (명일동)",212873.9667,449800.6068,58.97,저가,37.5503825,127.143586,0.144064467,3,2,1,56.72222222,5894190
324,메가엠지씨커피 퍼블릭가산점,2024-03-15,영업/정상,,서울특별시 금천구 가산동 60-26,"서울특별시 금천구 디지털로 178, 1층 M126호 (가산동)",189930.5079,441616.4607,41.18,저가,37.47667705,126.8840596,0.35791929,2,1,7,50.4,2645419
325,컴포즈커피 압구정스퀘어점,2024-01-31,영업/정상,,서울특별시 강남구 신사동 620 압구정스퀘어,"서울특별시 강남구 압구정로34길 11, 압구정스퀘어 지상1층 105호 (신사동)",202666.7171,447239.2186,53.89,저가,37.52738988,127.0280668,0.428353229,1,0,1,28.6,8336361
326,컴포즈커피 압구정스마일점,2024-01-31,영업/정상,,서울특별시 강남구 신사동 660-8,"서울특별시 강남구 압구정로 334, 지상1층 104호 (신사동)",203293.5726,447323.7373,44.63,저가,37.52814941,127.0351588,0.792032907,1,1,4,36.55555556,465419
327,빽다방 강남을지논현점,2024-02-01,영업/정상,,서울특별시 강남구 논현동 64-8,"서울특별시 강남구 도산대로34길 15, 지상1층 102호 (논현동)",202686.7838,446340.6751,37.57,저가,37.51929399,127.0282906,0.472404059,1,1,2,70.85555556,6392495
328,컴포즈커피 홍대와우산점,2024-06-18,영업/정상,,서울특별시 마포구 서교동 327-14,"서울특별시 마포구 와우산로 151, 1층 일부호 (서교동)",193723.0645,450269.334,33,저가,37.55467285,126.9268611,0.325496942,0,1,3,47.12222222,2464559
329,컴포즈커피 상명대동숭캠퍼스소극장점,2024-03-18,영업/정상,,서울특별시 종로구 동숭동 1-38 상명대학교예술디자인센터,"서울특별시 종로구 동숭길 133, 상명대학교예술디자인센터 지상 1층 (동숭동)",200171.5159,453449.8545,120,저가,37.58335077,126.9998395,0.220575883,1,1,13,46.53333333,1666179
330,컴포즈커피 서울강서초점,2024-06-14,영업/정상,,서울특별시 양천구 신월동 518-9,"서울특별시 양천구 오목로 34, 1층 (신월동)",185918.5651,446615.2255,50.1,저가,37.52166301,126.8386072,1.375717124,0,1,0,28.6,4043917
331,빽다방 강북중학교점,2024-04-30,영업/정상,,서울특별시 강북구 수유동 166-73,"서울특별시 강북구 한천로150길 70, 1층 (수유동)",202257.6906,460203.5928,98.87,저가,37.64419808,127.0234783,0.591340313,0,0,0,91.44444444,2285392
332,메가엠지씨커피 구로전화국점,2024-04-11,영업/정상,,서울특별시 금천구 독산동 950-2 영남빌딩,"서울특별시 금천구 남부순환로 1384, 영남빌딩 1층 일부호 (독산동)",191481.6753,441945.6915,72,저가,37.47965913,126.9015922,0.617785063,0,1,0,55.45555556,7122028
333,컴포즈 고척시장점,2017-03-09,영업/정상,,서울특별시 구로구 고척동 46-65 1층,"서울특별시 구로구 경인로47길 118, 1층 (고척동)",187882.9226,444637.5617,40,저가,37.50387239,126.860861,1.057771696,1,1,0,69.35555556,2622793
334,메가엠지씨커피 건대화양제일시장점,2024-03-20,영업/정상,,서울특별시 광진구 화양동 12-37,"서울특별시 광진구 능동로13길 40, 1층 (화양동)",206144.0149,449053.5178,76.62,저가,37.54372023,127.0674205,0.358770443,0,0,3,70.85555556,513451
335,컴포즈커피 강서등촌중앙점,2024-03-14,영업/정상,,서울특별시 강서구 등촌동 641-11 청림오피스텔 1층 105호,"서울특별시 강서구 공항대로45길 44, 청림오피스텔 1층 105호 (등촌동)",187197.4688,450519.9994,45.79,저가,37.55686334,126.8530059,1.691429166,1,2,3,55.45555556,267190
336,메가엠지씨커피 역삼와이즈플레이스점,2024-05-02,영업/정상,,서울특별시 강남구 역삼동 837-13 강남역 와이즈 플레이스,"서울특별시 강남구 강남대로66길 14, 강남역 와이즈 플레이스 지상1층 103호 (역삼동)",202746.0401,443281.217,35.6,저가,37.49172817,127.0289498,0.596290202,2,3,5,46.33333333,1878489
337,메가엠지씨커피 선사사거리점,2024-05-02,영업/정상,,서울특별시 강동구 암사동 463,"서울특별시 강동구 올림픽로 816, 103호 (암사동)",211338.5263,450163.9358,60,저가,37.55367611,127.1262158,0.330398362,0,0,1,36.55555556,842225
338,메가엠지씨커피 개포아이파크점,2024-02-08,영업/정상,,서울특별시 강남구 개포동 158 일영빌딩,"서울특별시 강남구 선릉로 28, 일영빌딩 지상1층 103호 (개포동)",205356.0704,442238.4206,33,저가,37.48232131,127.0584555,0.984475211,0,0,2,42.04444444,1830583
339,메가엠지씨커피 난곡사거리점,2024-03-22,영업/정상,,서울특별시 관악구 신림동 529-8 세인빌딩,"서울특별시 관악구 난곡로 320, 세인빌딩 1층 (신림동)",192378.2127,442276.9101,83.7,저가,37.4826513,126.9117248,0.555402971,1,0,1,69.35555556,498862
340,메가엠지씨커피 강동헤리티지점,2024-08-14,영업/정상,,서울특별시 강동구 길동 160 강동 헤리티지 자이,"서울특별시 강동구 천중로 264, 상가동 1층 113호 (길동, 강동 헤리티지 자이)",213070.495,448552.7479,30.15,저가,37.53913668,127.1457879,0.531518714,0,1,0,36.16666667,2166509
341,빽다방 중랑신내프라디움점,2024-02-13,영업/정상,,서울특별시 중랑구 망우동 584 신내역 프라디움 더 테라스,"서울특별시 중랑구 용마산로 670, CB동 지하1층 103호 (망우동, 신내역 프라디움 더 테라스)",208947.0723,456501.7351,46.3,저가,37.61080485,127.0992286,0.407530759,1,0,0,91.44444444,182956
342,컴포즈커피 강북번동점,2024-05-02,영업/정상,,서울특별시 강북구 번동 308-3 창암빌딩,"서울특별시 강북구 오현로34길 12, 창암빌딩 1층 (번동)",203465.7466,458475.2934,79.2,저가,37.62862281,127.0371584,1.001685053,0,1,0,37.3,1705145
343,컴포즈커피은평역말사거리점,2021-11-19,영업/정상,,서울특별시 은평구 역촌동 62-3 무궁화빌딩,"서울특별시 은평구 역말로 40, 무궁화빌딩 1층 4호 (역촌동)",192399.64,455923.9097,49.5,저가,37.6056097,126.9118247,0.730440706,0,0,0,44.73333333,6393625
344,메가엠지씨커피 역삼상록점,2024-02-14,영업/정상,,서울특별시 강남구 역삼동 703-1 SC빌딩,"서울특별시 강남구 테헤란로43길 18, SC빌딩 지상1층 102호 (역삼동)",203823.1799,444690.5967,36.36,저가,37.50442291,127.0411369,0.431026546,1,0,7,34.88888889,1131514
345,메가엠지씨커피 장위점,2020-09-04,영업/정상,,서울특별시 성북구 장위동 231-25 1층,"서울특별시 성북구 장위로 56, 1층 (장위동)",203707.1934,456834.9895,57.83,저가,37.61384308,127.0398854,0.877153022,0,1,0,26.58888889,3034558
346,컴포즈커피 도곡매봉점,2024-02-15,영업/정상,,서울특별시 강남구 도곡동 411-20 상일빌딩,"서울특별시 강남구 남부순환로 2738, 상일빌딩 지상1층 103호 (도곡동)",203948.2701,442641.1222,26,저가,37.48595665,127.0425408,0.383037421,1,0,1,55.45555556,4399455
347,메가엠지씨커피 남부터미널역점,2024-02-15,영업/정상,,서울특별시 서초구 서초동 1445-1 지하1층 102호,"서울특별시 서초구 효령로 310, 지하1층 102호 (서초동)",201539.4255,442552.4229,27.14,저가,37.48516445,127.0153044,0.091180783,0,1,3,26.58888889,5077538
348,메가엠지씨커피 동대문구청점,2024-02-15,영업/정상,,서울특별시 동대문구 용두동 29-4 화성빌딩,"서울특별시 동대문구 고산자로 406, 화성빌딩 1층 (용두동)",203340.6864,452607.8433,71.68,저가,37.57575854,127.0357154,0.239444902,0,1,0,47.12222222,966554
349,메가엠지씨커피 영등포이앤씨타워점,2024-03-22,영업/정상,,서울특별시 영등포구 양평동3가 46 이앤씨드림타워,"서울특별시 영등포구 선유로 146, 이앤씨드림타워 1층 121-1호 (양평동3가)",190364.652,447158.9463,29.7,저가,37.52661933,126.8888947,0.296997681,0,2,0,36.16666667,1949515
350,컴포즈커피 노량진점,2018-06-27,영업/정상,,서울특별시 동작구 노량진동 89-9,"서울특별시 동작구 노량진로16길 22, 1층 (노량진동)",194956.0882,445601.5692,15,저가,37.51262427,126.9408478,0.879126016,0,1,4,46.33333333,2352003
351,컴포즈커피 굽은다리역사점,2024-03-25,영업/정상,,서울특별시 강동구 명일동 345-12 굽은다리역,"서울특별시 강동구 양재대로 지하 1572, 굽은다리역 550-103호 (명일동)",212582.3811,449319.5155,34.43,저가,37.54605193,127.140278,0.254803869,3,1,4,46.33333333,2762074
352,빽다방 노량진2동점,2024-03-25,영업/정상,,서울특별시 동작구 노량진동 41-5,"서울특별시 동작구 노량진로 110, 외15필지 내제1층 105호 (노량진동)",194450.9386,445665.8267,35.6,저가,37.5132003,126.9351337,1.078666943,1,3,2,91.44444444,2352003
353,메가엠지씨커피 목동신트리공원점,2024-03-26,영업/정상,,서울특별시 양천구 신정동 1267 뉴프라자,"서울특별시 양천구 신정로 312, 뉴프라자 1층 111호 (신정동)",187158.467,445678.0763,48.66,저가,37.51323753,126.8526496,0.57274474,0,1,0,63.5,2067162
354,메가엠지씨커피 길음역롯데캐슬점,2024-05-07,영업/정상,,서울특별시 성북구 길음동 542-1 길음역롯데캐슬트윈골드아파트,"서울특별시 성북구 길음로 11, 상가1층 166호 (길음동, 길음역롯데캐슬트윈골드아파트)",201973.8868,455713.2446,21.55,저가,37.60374159,127.0202509,0.190041046,1,0,1,30.91111111,162956
355,빽다방 신이문역점,2024-06-21,영업/정상,,서울특별시 동대문구 이문동 220-105,"서울특별시 동대문구 신이문로 39, 1층 (이문동)",205793.7898,455659.5871,55.95,저가,37.60324229,127.0635092,1.020727257,0,1,0,32.56666667,275679
356,빽다방 신내지하차도점,2024-08-16,영업/정상,,서울특별시 중랑구 신내동 495-8,"서울특별시 중랑구 신내로 7, 1층 (신내동)",208481.7961,455288.1731,61.2,저가,37.59987526,127.0939451,0.778368812,1,1,1,30.91111111,2862706
357,컴포즈커피 양재시민의숲 에브리데이점,2024-05-09,영업/정상,,서울특별시 서초구 양재동 331 1층,"서울특별시 서초구 동산로2길 16, 1층 (양재동)",203630.2383,440753.0383,26.4,저가,37.46894625,127.0389357,1.827353874,1,1,2,44.73333333,2783697
358,메가엠지씨커피 서대문역점,2023-05-08,영업/정상,,서울특별시 서대문구 냉천동 237 1층,"서울특별시 서대문구 통일로 147, 1층 (냉천동)",196828.8296,451670.5142,32.59,저가,37.56731347,126.9620033,0.448795932,1,2,1,58.21111111,502720
359,빽다방 석촌호수단길점,2024-08-16,영업/정상,,서울특별시 송파구 석촌동 172-6,"서울특별시 송파구 백제고분로39길 5, 1층 (석촌동)",209211.3417,444765.9468,29.8,저가,37.50506417,127.1020754,0.358441432,1,0,1,69.35555556,3731184
360,메가엠지씨커피 잠실초점,2024-08-16,영업/정상,,서울특별시 송파구 신천동 20-6 파크리오,"서울특별시 송파구 올림픽로35길 10, 파크리오상가 B동 1층 140호 (신천동)",209933.8233,446455.5267,28.47,저가,37.52027977,127.110269,0.369091267,0,0,2,55.45555556,4073493
361,메가엠지씨커피 송파파인타운점,2021-05-17,영업/정상,,서울특별시 송파구 장지동 841-4 대진플라자2,"서울특별시 송파구 충민로2길 28, 대진플라자2 106호 (장지동)",211199.5093,441680.5801,46.41,저가,37.47724325,127.1245141,0.212539725,0,0,4,40.75555556,810926
362,컴포즈커피 용두동아제약점,2024-03-29,영업/정상,,서울특별시 동대문구 용두동 249-7 보금빌딩,"서울특별시 동대문구 무학로23길 8, 보금빌딩 1층 (용두동)",202585.3211,452257.1429,254.13,저가,37.57260115,127.0271632,0.441790104,0,1,0,36.55555556,7999212
363,빽다방 종로5가역점,2024-06-24,영업/정상,,서울특별시 종로구 종로5가 90,"서울특별시 종로구 종로 213, 지상 1층 102호 (종로5가)",200052.1305,452100.6488,22.8,저가,37.57119461,126.9984879,0.303437493,1,1,4,70.85555556,2684556
364,메가엠지씨커피 선릉샹제리제점,2024-04-29,영업/정상,,서울특별시 강남구 대치동 889-5 샹제리제센터,"서울특별시 강남구 테헤란로 406, 샹제리제센터 A동 지하제1층 120호 (대치동)",204325.144,444689.0952,33,저가,37.50440721,127.0468138,0.709135871,2,2,6,60.31111111,21670795
365,컴포즈커피 천호역힐스테이트점,2024-06-17,영업/정상,,서울특별시 강동구 성내동 48-6,"서울특별시 강동구 천호대로 1024, 119호 (성내동)",211052.2914,448328.9101,20.86,저가,37.53714617,127.122949,0.16658629,2,2,9,45.51111111,5284477
366,메가엠지씨커피 청량리역한양수자인점,2024-06-25,영업/정상,,서울특별시 동대문구 용두동 39-1 청량리역한양수자인그라시엘,"서울특별시 동대문구 고산자로32길 78, 판매시설동 1층 104호 (용두동, 청량리역한양수자인그라시엘)",203728.022,452778.9652,26.16,저가,37.57729887,127.040101,0.255331754,3,0,1,46.53333333,254264
367,빽다방 쌍문역2번출구점,2024-05-13,영업/정상,,서울특별시 도봉구 창동 659-29 삼성쉐르빌퍼스티,"서울특별시 도봉구 도봉로 476, 삼성쉐르빌퍼스티 1층 101호 (창동)",202999.2675,460616.7013,39.6,저가,37.64791802,127.0318826,0.309219266,5,2,2,91.44444444,6562361
368,메가엠지씨커피 신림충무교점,2024-05-13,영업/정상,,서울특별시 관악구 신림동 107-115,"서울특별시 관악구 신림로 186, 1층 (신림동)",194262.8287,441316.4634,118.41,저가,37.47401141,126.9330403,1.20324741,0,1,0,34.24444444,58210
369,컴포즈커피 동작남성점,2024-04-05,영업/정상,,서울특별시 동작구 사당동 226-7,"서울특별시 동작구 솔밭로 103, 1층 (사당동)",197113.456,442600.6072,40.77,저가,37.48559506,126.9652614,0.52537597,0,1,0,36.16666667,1944387
370,메가엠지씨커피 학동사거리점,2024-05-16,영업/정상,,서울특별시 강남구 청담동 1-16 태성빌딩,"서울특별시 강남구 선릉로 752, 태성빌딩 지상1층 101호 (청담동)",203446.2138,446627.6666,42.97,저가,37.5218773,127.0368825,0.61864866,2,0,2,70.85555556,1819350
371,컴포즈커피 건대양꼬치거리점,2024-04-09,영업/정상,,서울특별시 광진구 자양동 11-4,"서울특별시 광진구 동일로18길 62, 1층 (자양동)",205766.9237,448521.3553,57,저가,37.5389279,127.0631494,0.550389385,0,1,0,26.26666667,1723747
372,컴포즈커피 강남포이점,2024-05-16,영업/정상,,서울특별시 강남구 개포동 1258-1 우덕빌딩,"서울특별시 강남구 개포로 223, 우덕빌딩 지상1층 1호,2호 (개포동)",204109.9847,441864.8048,66,저가,37.47896132,127.044365,0.916202015,1,0,0,26.26666667,648958
373,빽다방 영등포시장사거리점,2024-04-11,영업/정상,,서울특별시 영등포구 영등포동4가 68-8,"서울특별시 영등포구 영등포로 202, 1층 (영등포동4가)",191434.2682,446414.3052,45.2,저가,37.51992078,126.9010038,0.485675886,1,4,3,31.98888889,2389831
374,메가엠지씨커피 정릉중앙점,2023-05-25,영업/정상,,서울특별시 성북구 정릉동 716-3 아이콘스타,"서울특별시 성북구 솔샘로 33, 제지1층 제비101,102호 (정릉동, 아이콘스타)",200372.8763,456463.2669,100.75,저가,37.61050108,127.0021205,1.925650193,0,0,0,40.75555556,926097
375,메가엠지씨커피 금천시흥유통상가점,2024-08-22,영업/정상,,서울특별시 금천구 시흥동 940-9,"서울특별시 금천구 시흥대로 98, 1층 일부호 (시흥동)",191435.5667,437850.295,67,저가,37.44275904,126.9011188,4.417522075,0,1,0,26.26666667,292126
376,메가엠지씨커피 중계무지개점,2024-07-01,영업/정상,,"서울특별시 노원구 중계동 512 중계무지개아파트2단지상가,유치원","서울특별시 노원구 동일로 1280, 중계무지개아파트2단지상가,유치원 1층 113호 (중계동)",205805.6216,460041.3395,31.05,저가,37.6427209,127.0636775,0.226260313,1,1,0,41.93333333,192966
377,메가엠지씨커피 노원롯데캐슬점,2024-07-01,영업/정상,,서울특별시 노원구 상계동 95-3 노원 롯데캐슬 시그니처,"서울특별시 노원구 덕릉로 753, 105동 2-4호 (상계동, 노원 롯데캐슬 시그니처)",206799.0201,462509.6384,64.36,저가,37.66495289,127.074956,0.448610116,0,0,0,70.85555556,760260
378,메가엠지씨커피 군자동주민센터점,2024-07-02,영업/정상,,서울특별시 광진구 군자동 48-35 1층,"서울특별시 광진구 면목로 7-1, 1층 (군자동)",206575.9141,450310.0087,66,저가,37.55503814,127.0723188,0.748265068,0,0,1,53.08888889,929976
379,메가엠지씨커피 청량리시장점,2024-05-17,영업/정상,,서울특별시 동대문구 제기동 655,"서울특별시 동대문구 왕산로 163-1, 1층 (제기동)",203592.1442,453003.4833,24.7,저가,37.57932228,127.0385639,0.372618713,2,0,0,50.4,289596
380,빽다방 도봉구청점,2024-05-17,영업/정상,,서울특별시 도봉구 방학동 720-33 도봉월드상가 1층 102-2호,"서울특별시 도봉구 마들로 650, 도봉월드상가 1층 102-2호 (방학동)",204083.7693,462849.0208,23.12,저가,37.66802653,127.0441836,1.130193897,1,1,0,31.98888889,5900764
381,빽다방 상암이안점,2024-05-17,영업/정상,,서울특별시 마포구 상암동 1653 DMC이안오피스텔,"서울특별시 마포구 월드컵북로 361, DMC이안상암2단지 1층 110호 (상암동)",190335.4968,452758.6428,35.1,저가,37.57707168,126.8884906,1.204799042,0,1,5,34.88888889,5098336
382,메가엠지씨커피 건대스타시티몰점,2024-08-23,영업/정상,,서울특별시 광진구 자양동 227-7 더샵스타시티,"서울특별시 광진구 아차산로 272, 더샵스타시티 1층 F123호 (자양동)",206349.675,448396.9397,23.1,저가,37.53780314,127.069742,0.309657866,3,2,5,40.93333333,232173
383,컴포즈커피 관악신사교차로점,2024-07-04,영업/정상,,서울특별시 관악구 신림동 519-8,"서울특별시 관악구 조원로 103, 1층 (신림동)",192290.5421,442531.1872,54,저가,37.4849416,126.9107309,0.350360145,3,0,0,42.04444444,498862
384,빽다방 (종로3가대로점),2024-05-23,영업/정상,,서울특별시 종로구 종로3가 117-3,"서울특별시 종로구 종로 118, 지상 1층 (종로3가)",199100.178,451973.8012,36.67,저가,37.57005122,126.9877123,0.393265526,3,2,6,28.6,5140681
385,컴포즈커피 서울 성균관대점,2021-09-13,영업/정상,,서울특별시 종로구 명륜2가 148 1층 우측,"서울특별시 종로구 성균관로 12-1, 1층 우측호 (명륜2가)",199743.2946,453529.0037,29,저가,37.58406384,126.9949914,0.638477944,1,1,7,36.16666667,2318907
386,빽다방 중곡가구거리점,2024-05-27,영업/정상,,서울특별시 광진구 중곡동 140-29,"서울특별시 광진구 천호대로 575, 1층 (중곡동)",207190.6003,450474.467,40,저가,37.55651535,127.0792769,0.11340956,1,0,1,70.85555556,3960535
387,메가엠지씨커피 목동트라팰리스점,2024-07-10,영업/정상,,서울특별시 양천구 목동 406-143,"서울특별시 양천구 목동서로 246, 1층 (목동)",188398.4465,447066.0427,56.88,저가,37.52575951,126.8666527,0.189433017,1,0,10,84.78888889,708292
388,메가엠지씨커피 서초브라운스톤점,2024-05-27,영업/정상,,서울특별시 서초구 서초동 1677-1 브라운스톤서초 101호,"서울특별시 서초구 서초대로 334, 101호 (서초동, 브라운스톤서초)",201547.2635,443612.0487,34.78,저가,37.49471167,127.0153951,0.734417471,0,1,2,28.6,18046572
389,컴포즈커피 응암시장교차로점,2024-05-20,영업/정상,,서울특별시 은평구 응암동 124-17 외환은행,"서울특별시 은평구 응암로 247, 외환은행 1층 (응암동)",192674.1327,454664.1668,36.3,저가,37.59426188,126.9149459,0.374722615,1,1,0,69.35555556,185733
390,컴포즈커피 양천향교역점,2024-07-05,폐업,2024-08-09,서울특별시 강서구 등촌동 828,"서울특별시 강서구 강서로74길 52, 1층 103호 (등촌동)",186124.39,451594.17,46.8,저가,37.56652586,126.840841,1.067542125,1,0,2,26.26666667,1339129
391,메가엠지씨커피 광운대점,2024-05-28,영업/정상,,서울특별시 노원구 월계동 402-18,"서울특별시 노원구 광운로7길 2, 1층 일부호 (월계동)",205108.5518,457596.2797,39.57,저가,37.62069554,127.0557626,1.135871767,2,0,0,36.55555556,3462632
392,메가엠지씨커피 독산별빛남문시장점,2024-08-14,영업/정상,,서울특별시 금천구 독산동 165-3,"서울특별시 금천구 독산로85길 35, 1층 101호 (독산동)",191185.7832,441144.9903,49,저가,37.47244201,126.8982566,1.450503645,0,1,1,42.04444444,3050026
393,컴포즈커피 종로YMCA점,2024-05-29,영업/정상,,서울특별시 종로구 종로2가 9 서울 YMCA,"서울특별시 종로구 종로 69, 서울 YMCA 1층 109호 (종로2가)",198630.7963,452035.4126,39.6,저가,37.57060572,126.9823991,0.096075274,2,1,12,44.73333333,10861207
394,메가엠지씨커피 마곡GMG타워점,2024-04-23,영업/정상,,서울특별시 강서구 마곡동 773-2 마곡지엠지타워,"서울특별시 강서구 마곡중앙6로 16, 마곡지엠지타워 1층 109호 (마곡동)",184824.2758,450916.7579,47.95,저가,37.5604019,126.8261393,0.096595804,3,1,3,41.93333333,44150
395,메가엠지씨커피 역삼e편한세상점,2024-07-10,영업/정상,,서울특별시 강남구 역삼동 756-13 중앙빌딩,"서울특별시 강남구 선릉로 325, 중앙빌딩 내제1층 제5호 (역삼동)",204488.954,444041.9777,23.14,저가,37.49857592,127.0486626,0.958595022,0,0,2,138.7,364807
396,컴포즈커피 수락산역점,2019-10-28,영업/정상,,서울특별시 노원구 상계동 1262 하이베라스,"서울특별시 노원구 동일로 1689, 1층 103호 (상계동, 하이베라스)",204772.3674,464080.5939,39.19,저가,37.67911939,127.0519963,0.348351301,1,1,1,36.55555556,7867120
397,빽다방(서울숭미초교점),2024-07-12,영업/정상,,서울특별시 도봉구 쌍문동 315-78,"서울특별시 도봉구 노해로 178, 1층 (쌍문동)",202436.6648,460853.9041,50,저가,37.65005678,127.0255083,0.850565098,1,1,0,44.73333333,6291892
398,컴포즈커피 증산벚꽃길점,2024-07-12,영업/정상,,서울특별시 은평구 신사동 24-7 한독패션,"서울특별시 은평구 증산로 445, 한독패션 1층 (신사동)",192392.7694,454855.1302,54.98,저가,37.59598013,126.911758,0.385688927,1,0,1,30.91111111,6812516
399,빽다방 제기동역점,2024-07-18,영업/정상,,서울특별시 동대문구 용두동 712-4,"서울특별시 동대문구 왕산로 110, 1층 (용두동)",203068.3028,452858.35,56.2,저가,37.5780165,127.032633,0.173431114,0,0,1,46.33333333,3835002
400,메가엠지씨커피 서울성산초점,2024-07-18,영업/정상,,서울특별시 마포구 합정동 426-20 합정동웰빙센터,"서울특별시 마포구 월드컵로 37, 합정동웰빙센터 1층 102,103호 (합정동)",192124.1188,450005.6149,48,저가,37.55228439,126.9087685,0.398987499,0,0,6,34.24444444,19351605
401,컴포즈커피 명동이화점,20210128,영업/정상,,서울특별시 중구 충무로2가 60-3 ,"서울특별시 중구 삼일대로 299, 지하1층 (충무로2가)",198911.8064,451032.3161,69.4,저가,37.56156833,126.9855816,0.082169137,1,3,12,84.78888889,3084116
402,메가엠지씨커피 북한산우이역점,2024-07-12,영업/정상,,서울특별시 강북구 우이동 179-2 지상1층,"서울특별시 강북구 삼양로173길 26, 1층 (우이동)",200899.2321,462274.7182,53.37,저가,37.66286064,127.0080884,2.829245857,0,1,0,40.75555556,894356
403,메가엠지씨커피 동대문동평화점,2021-03-26,영업/정상,,서울특별시 중구 신당동 217-94,"서울특별시 중구 마장로1길 28-25, 1층 12호 (신당동)",201110.0103,451892.5188,45.45,저가,37.56931879,127.0104624,0.171083061,1,2,0,58.21111111,135860
404,메가엠지씨커피 마천성내2교점,2024-07-19,영업/정상,,서울특별시 송파구 마천동 32-2 석일빌딩,"서울특별시 송파구 마천로 240, 1층 (마천동)",212664.977,444154.3658,53.38,저가,37.49951319,127.1411241,0.59082863,0,1,0,40.75555556,8410570
405,메가엠지씨커피 서초구청점,2024-07-22,영업/정상,,서울특별시 서초구 서초동 1363-4 N PARK 1층,"서울특별시 서초구 남부순환로347길 16, 1층 (서초동, N PARK)",202755.6396,442555.1701,75.63,저가,37.48518646,127.0290557,0.384618523,1,2,7,82.53333333,2660634
406,메가엠지씨커피 태릉시장점,2024-07-22,영업/정상,,서울특별시 중랑구 중화동 304-37,"서울특별시 중랑구 중랑역로 68, 1층 (중화동)",206849.9252,455249.121,44.47,저가,37.59953688,127.0754655,0.398218521,2,1,1,60.1,1192162
407,컴포즈커피 문래에이스하이테크점,2024-07-23,영업/정상,,서울특별시 영등포구 문래동3가 55-20 에이스하이테크시티,"서울특별시 영등포구 경인로 775, 에이스하이테크시티 1층 1-106호 (문래동3가)",190996.3573,445841.3776,65.15,저가,37.51475454,126.8960573,0.412121245,1,1,1,31.98888889,13753613
408,메가엠지씨커피 중구삼성병원점,2024-07-23,영업/정상,,서울특별시 중구 충정로1가 58-4,"서울특별시 중구 새문안로 28, 1층 (충정로1가)",197181.9326,451717.9793,23,저가,37.56774229,126.9659999,0.191461249,3,0,7,26.26666667,4909190
409,컴포즈커피 회기역점,2024-07-23,영업/정상,,서울특별시 동대문구 휘경동 183-245,"서울특별시 동대문구 이문로 42-1, 1층 101호 (휘경동)",204963.1275,454325.089,36,저가,37.59122348,127.0540934,1.453908428,2,1,3,36.55555556,1508604
410,빽다방 서울JD타워점,2024-07-24,영업/정상,,서울특별시 중구 오장동 139-1,"서울특별시 중구 동호로 347, 1층 (오장동)",200112.1273,451452.2852,83,저가,37.56535293,126.999167,0.189359831,0,1,3,36.55555556,2944995
411,빽다방 서울한국외대점,2024-07-24,영업/정상,,서울특별시 동대문구 이문동 291-12 보인빌딩,"서울특별시 동대문구 이문로 119, 보인빌딩 1층 (이문동)",205290.6179,455017.7364,59.71,저가,37.59746232,127.0578064,1.280146299,2,2,4,30.91111111,5033979
412,메가엠지씨커피 종로케이트윈타워점,2024-07-26,영업/정상,,서울특별시 종로구 중학동 19 더케이트윈타워,"서울특별시 종로구 종로1길 50, 더케이트윈타워 B동 지하 1층 19-2호 (중학동)",198101.5933,452496.3621,57.93,저가,37.57475785,126.9764075,0.303314717,0,1,7,70.85555556,1684450
413,컴포즈커피 마포경찰서점,2024-07-26,영업/정상,,서울특별시 마포구 공덕동 105-159 공덕동 105-157외1필지,"서울특별시 마포구 마포대로 180, 1층 좌측호 (공덕동)",195998.6853,449769.5134,66,저가,37.55018236,126.9526174,0.311390834,0,2,2,36.55555556,446712
414,빽다방 중곡사거리점,2024-07-29,영업/정상,,서울특별시 광진구 중곡동 124-39,"서울특별시 광진구 용마산로 51, 1층 일부호 (중곡동)",207673.1128,450670.1232,29.24,저가,37.55827433,127.0847397,0.408532741,1,1,0,44.73333333,6838959
415,메가엠지씨커피 수락디자인점,2024-07-29,영업/정상,,서울특별시 노원구 상계동 1121-17,"서울특별시 노원구 동일로242길 55, 지상1층 좌측호 (상계동)",205079.4062,463614.6298,50.45,저가,37.67491956,127.0554737,0.282074059,0,1,0,31.98888889,3586097
416,메가엠지씨커피 월계사슴점,2024-07-23,영업/정상,,서울특별시 노원구 월계동 321-2 희성프라자,"서울특별시 노원구 월계로 370, 희성프라자 1층 125호 (월계동)",205316.2963,458732.9588,31.8,저가,37.63093561,127.0581239,1.03429834,0,1,0,46.53333333,1603752
417,메가엠지씨커피 광산사거리점,2024-07-31,영업/정상,,서울특별시 강북구 수유동 231-1 광산빌딩,"서울특별시 강북구 노해로 87, 광산빌딩 1층 101호 (수유동)",201897.9409,460144.5942,66,저가,37.6436673,127.019402,0.8121931,1,0,0,51.66666667,2285392
418,메가엠지씨커피 올림픽공원역점,2023-02-20,영업/정상,,서울특별시 송파구 방이동 89-11 올림픽프라자,"서울특별시 송파구 양재대로 1222, 올림픽프라자 1층 86호 (방이동)",211619.368,445963.3849,39.52,저가,37.51582604,127.129328,0.178514726,0,0,4,45.97777778,1215952
419,메가엠지씨커피 서울대잔디광장점,2023-02-20,영업/정상,,서울특별시 관악구 신림동 산 56-1 서울대학교,"서울특별시 관악구 관악로 1, 서울대학교 60-1동 B1층 (신림동)",196139.865,439023.1671,156,저가,37.45335859,126.9542723,3.033389346,1,0,1,63.37777778,2952781
420,컴포즈커피 방학선덕점,2021-08-02,영업/정상,,서울특별시 도봉구 쌍문동 262-10,"서울특별시 도봉구 시루봉로 59, 1층 101호 (쌍문동)",202376.4525,461534.6798,46.02,저가,37.65619055,127.0248282,1.201992124,1,1,0,34.24444444,3509417
421,빽다방 상왕십리역점,20200214,영업/정상,,서울특별시 성동구 하왕십리동 946-16번지 ,"서울특별시 성동구 왕십리로 363-1, 1층 (하왕십리동)",202542.431,451307.4719,61.96,저가,37.56404485,127.0266745,0.276340297,2,1,2,46.33333333,2925316
422,메가엠지씨커피 중곡중앙점,2022-03-18,영업/정상,,서울특별시 광진구 중곡동 47-14 영빌딩,"서울특별시 광진구 능동로 338-1, 영빌딩 1층 (중곡동)",207101.8943,450825.1649,105,저가,37.55967578,127.0782763,0.383365054,0,1,1,36.16666667,1239569
423,메가엠지씨커피 자양시장점,2020-10-26,영업/정상,,서울특별시 광진구 자양동 612-60 혜성빌딩 1층,"서울특별시 광진구 자양로15길 18, 혜성빌딩 1층 (자양동)",207235.6346,448183.9132,55,저가,37.53587732,127.0797642,0.852506555,3,1,4,36.55555556,5803033
424,컴포즈커피 가좌역 가재울점,2022-12-09,영업/정상,,서울특별시 서대문구 북가좌동 487 성공타워1,"서울특별시 서대문구 수색로 56, 성공타워1 1층 127,128호 (북가좌동)",192209.3236,452067.0394,75.84,저가,37.57085831,126.9097107,0.909698228,2,1,0,36.55555556,544418
425,컴포즈커피 신금호중앙점,2023-02-21,영업/정상,,서울특별시 성동구 금호동2가 326 금호빌딩,"서울특별시 성동구 금호산길 67, 1층 (금호동2가)",201654.0496,450231.3131,117.78,저가,37.55435073,127.016617,0.282025945,1,0,1,36.55555556,4788406
426,컴포즈커피 한남순천향점,2023-02-20,영업/정상,,서울특별시 용산구 한남동 636-7,"서울특별시 용산구 대사관로 64, 1층 (한남동)",200384.512,447884.3222,36.3,저가,37.53320584,127.0022485,0.686432755,0,2,1,46.33333333,10061716
427,메가엠지씨커피 여의중앙점,2023-01-31,영업/정상,,서울특별시 영등포구 여의도동 44-21 중앙빌딩,"서울특별시 영등포구 국제금융로8길 19, 중앙빌딩 1층 101호 (여의도동)",193678.6954,446510.537,38.35,저가,37.52080608,126.9263917,0.275813817,2,2,12,26.26666667,6362499
428,컴포즈 커피 중랑중화점,2021-06-23,영업/정상,,서울특별시 중랑구 중화동 302-77,"서울특별시 중랑구 중랑역로 66, 1층 (중화동)",206841.4301,455205.2162,49,저가,37.59914137,127.0753689,0.432719357,2,1,0,28.6,1192162
429,메가엠지씨커피월곡두산점,2018-07-16,영업/정상,,서울특별시 성북구 하월곡동 222 월곡두산위브아파트,"서울특별시 성북구 오패산로 46, 주상가동 1층 106호 (하월곡동, 월곡두산위브아파트)",203318.1273,456078.9821,32.76,저가,37.60703305,127.0354754,0.78684285,0,0,0,51.66666667,238950
430,메가엠지씨 커피 수유점,20191107,영업/정상,,서울특별시 강북구 수유동 173-6번지 ,"서울특별시 강북구 도봉로 379, 1층 (수유동)",202441.2605,459852.1506,50,저가,37.64103121,127.0255571,0.201553573,2,1,1,32.74444444,3189229
431,컴포즈커피 수유3동점,2016-12-19,영업/정상,,서울특별시 강북구 번동 464-7,"서울특별시 강북구 도봉로 386, 1층 (번동)",202511.4641,459845.659,80,저가,37.64097253,127.0263525,0.152945476,1,1,0,34.24444444,3189229
432,메가엠지씨커피창동어울림점,2021-04-02,영업/정상,,서울특별시 도봉구 창동 296-20,"서울특별시 도봉구 해등로16길 32, 1층 (창동)",203614.07,461452.595,56,저가,37.65544704,127.0388531,0.784094049,1,2,1,51.66666667,664090
433,메가엠지씨커피 화랑대역점,2019-02-07,영업/정상,,서울특별시 노원구 공릉동 90-1 해중빌딩,"서울특별시 노원구 노원로1길 9, 103호 (공릉동, 해중빌딩)",207557.4224,457764.278,33.21,저가,37.62219247,127.0835029,0.238069635,0,1,1,56.72222222,6092773
434,메가엠지씨커피 마들역점,20220121,영업/정상,,서울특별시 노원구 상계동 651 11단지종합상가 ,"서울특별시 노원구 동일로 1541, 11단지종합상가 1층 103,104호 (상계동)",204962.0527,462608.5381,50.4,저가,37.66585559,127.0541367,0.320087312,1,1,0,34.88888889,449373
435,메가엠지씨커피 화곡곰달래점,2023-02-16,영업/정상,,서울특별시 강서구 화곡동 871-6,"서울특별시 강서구 곰달래로 185, 1층 (화곡동)",186988.5122,447677.2795,60,저가,37.53124781,126.8506917,0.416268437,1,0,0,47.12222222,4187453
436,컴포즈커피 은평응암오거리점,2021-12-28,영업/정상,,서울특별시 은평구 응암동 590-1,"서울특별시 은평구 가좌로 231, 1층 (응암동)",192565.0421,454222.0841,47.81,저가,37.59027791,126.9137152,0.105079215,1,2,1,43.41111111,2886930
437,컴포즈커피 삼각지역점,2023-02-23,영업/정상,,서울특별시 용산구 용산동3가 1-2,"서울특별시 용산구 한강대로62가길 20, 1층 제8호 (용산동3가)",197714.8655,448045.8459,16,저가,37.53465822,126.9720439,0.103860753,1,1,0,26.26666667,3310202
438,메가엠지씨커피 대림썬프라자점,2023-02-23,영업/정상,,서울특별시 영등포구 대림동 909-2 썬프라자별관,"서울특별시 영등포구 신길로 41, 썬프라자별관 1층 (대림동)",191800.7282,443809.7739,63.5,저가,37.4964574,126.9051784,0.567666765,1,1,0,47.12222222,1212049
439,컴포즈커피 명지대사거리점,20220325,영업/정상,,서울특별시 서대문구 남가좌동 388 DMC센트럴아이파크 제상가동 B304호,"서울특별시 서대문구 증가로 150, 제상가동 제지3층 B304호 (남가좌동, DMC센트럴아이파크)",192944.0687,452838.6376,36.79,저가,37.57781628,126.9180202,1.000468603,1,0,3,33.92222222,8918435
440,메가엠지씨커피 홍대입구역점,2017-07-24,영업/정상,,서울특별시 마포구 동교동 164-22,"서울특별시 마포구 홍익로6길 48 (동교동, 1층일부)",193236.41,450439.3622,118.35,저가,37.55620131,126.921352,0.223867224,1,1,11,40.93333333,366250
441,빽다방 목동파리공원점,2015-08-10,영업/정상,,서울특별시 양천구 목동 907-5 목동가든스위트 지상1층 102호,"서울특별시 양천구 목동서로 65, 1층 102호 (목동, 목동가든스위트)",189212.075,448218.4437,43.47,저가,37.53615248,126.8758401,1.286039388,3,1,3,30.91111111,222600
442,메가엠지씨커피 신정푸른마을점,20220602,영업/정상,,서울특별시 양천구 신정동 773-5 유광빌딩,"서울특별시 양천구 신정로11길 62, 유광빌딩 1층 101~102호 (신정동)",185572.7604,445539.7897,84.58,저가,37.51196805,126.8347166,1.811848769,0,1,0,55.45555556,358754
443,메가엠지씨커피 용산후암점,2023-02-24,영업/정상,,서울특별시 용산구 후암동 244-71,"서울특별시 용산구 후암로 42-2, 1층 (후암동)",197950.438,449726.556,60.59,저가,37.54980186,126.9747044,0.404606879,1,1,0,55.45555556,497568
444,메가엠지씨커피 이마트에브리데이 중계동점,2023-02-24,영업/정상,,서울특별시 노원구 중계동 58-34 이연아마빌레,"서울특별시 노원구 중계로12길 39, 1층 (중계동, 이연아마빌레)",207224.0762,460471.5466,46.9,저가,37.646587,127.0797535,1.3825251,1,0,0,55.45555556,1867546
445,컴포즈커피 구로항동점,2021-05-20,영업/정상,,서울특별시 구로구 항동 242-1,"서울특별시 구로구 서해안로 2096, 1층 110호 (항동)",184272.8595,441965.792,28.4,저가,37.4797452,126.8200906,1.298071891,0,1,1,55.45555556,344199
446,컴포즈커피 중랑면목시장점,20230110,영업/정상,,서울특별시 중랑구 면목동 633-12 KG TOWER,"서울특별시 중랑구 면목로 293, A동 101호 (면목동, KG TOWER)",207549.9333,452969.8197,34.8,저가,37.57899531,127.0833691,0.577688794,0,1,2,55.45555556,1314619
447,빽다방 반포고투몰2호점,20150916,영업/정상,,서울특별시 서초구 반포동 128-4번지 강남터미널지하쇼핑몰 T-012호,"서울특별시 서초구 신반포로 지하 200, T-012호 (반포동, 강남터미널지하쇼핑몰)",200367.5886,444873.4378,23.75,저가,37.50607791,127.0020558,0.283475549,3,3,9,55.45555556,2446037
448,메가엠지씨커피 강남자곡점,2023-02-02,영업/정상,,서울특별시 강남구 자곡동 658 강남힐스테이트에코,"서울특별시 강남구 자곡로 202, 강남힐스테이트에코 지상1층 101호 (자곡동)",209201.9614,441399.856,48.72,저가,37.47473582,127.1019275,1.508215163,1,2,1,30.91111111,229309
449,빽다방 둔촌동역점,2015-11-09,폐업,2024-01-16,서울특별시 강동구 성내동 429-2,"서울특별시 강동구 양재대로 1339, 1층 2호 (성내동)",211863.9961,447092.251,59.17,저가,37.52599395,127.1321132,0.943172827,1,0,0,55.45555556,1234073
450,메가엠지씨커피 강일2지구,20210329,영업/정상,,서울특별시 강동구 강일동 76-2 아이메디컬 ,"서울특별시 강동구 아리수로93나길 38, 아이메디컬 1층 101,102호 (강일동)",215303.9133,452189.7551,82,저가,37.57187142,127.1711339,1.651270977,1,1,1,40.75555556,248692
451,메가엠지씨커피 굽은다리역점,2021-05-06,영업/정상,,서울특별시 강동구 명일동 353-3 죽애빌딩,"서울특별시 강동구 양재대로 1566, 죽애빌딩 1층 (명일동)",212588.1315,449225.6262,135,저가,37.54520592,127.1403415,0.266361018,3,1,6,55.45555556,2762074
452,메가엠지씨 커피 고덕래미안점,20210811,영업/정상,,서울특별시 강동구 고덕동 688 래미안힐스테이트고덕,"서울특별시 강동구 아리수로50길 50, 상가동 1층 107호 (고덕동, 래미안힐스테이트고덕)",212926.0899,450751.5243,36.2,저가,37.55894942,127.1441925,0.868136177,0,1,0,55.45555556,13334438
453,메가엠지씨커피 둔촌동역점,20210524,영업/정상,,서울특별시 강동구 성내동 428-5 오스카빌딩 ,"서울특별시 강동구 양재대로 1355, 오스카빌딩 1층 5호 (성내동)",211912.2827,447248.1261,82.64,저가,37.52739775,127.1326619,0.918397513,2,1,1,40.93333333,1234073
454,컴포즈커피 암사역점,2021-07-01,영업/정상,,서울특별시 강동구 천호동 287 영림빌딩,"서울특별시 강동구 올림픽로 770, 영림빌딩 1층 105호 (천호동)",211212.5177,449732.2617,36,저가,37.5497883,127.1247832,0.334906898,1,1,1,30.91111111,5486109
455,컴포즈커피 강남세곡점,2020-05-18,영업/정상,,서울특별시 강남구 세곡동 590 라온 프라이빗시티,"서울특별시 강남구 헌릉로569길 13, 라온 프라이빗시티 지상1층 111호 (세곡동)",208790.93,440518.11,42.5,저가,37.46679525,127.0972703,2.22256475,1,1,3,55.45555556,345633
456,컴포즈커피 명일역점,2020-07-28,영업/정상,,서울특별시 강동구 명일동 312-42,"서울특별시 강동구 양재대로 1641, 1층 7호 (명일동)",212642.0589,449988.9689,41.19,저가,37.55208281,127.1409648,0.155212007,3,2,3,55.45555556,5894190
457,빽다방 외대역점,20151030,폐업,20230130,서울특별시 동대문구 이문동 305-152,"서울특별시 동대문구 휘경로 17, 1층 (이문동)",205420.5899,454834.7658,25,저가,37.59581304,127.0592768,1.504568406,2,1,4,55.45555556,5033979
458,컴포즈커피 강동강일점,20211020,영업/정상,,서울특별시 강동구 강일동 76-2 아이메디컬 ,"서울특별시 강동구 아리수로93나길 38, 아이메디컬 1층 116호 (강일동)",215303.9133,452189.7551,43.29,저가,37.57187142,127.1711339,1.651270977,1,1,1,55.45555556,248692
459,메가엠지씨커피 명일역점,2020-06-30,영업/정상,,서울특별시 강동구 명일동 312-42,"서울특별시 강동구 양재대로 1641, 1층 4호 (명일동)",212642.0589,449988.9689,41.39,저가,37.55208281,127.1409648,0.155212007,3,2,3,55.45555556,5894190
460,컴포즈커피 서초교대점,20221229,영업/정상,,서울특별시 서초구 서초동 1657-10 1층 1호,"서울특별시 서초구 서초중앙로22길 8, 1층 1호 (서초동)",201201.6013,443425.4541,41,저가,37.49303094,127.0114861,0.360306961,3,3,9,55.45555556,18046572
461,빽다방(방이시장점),2019-10-17,영업/정상,,서울특별시 송파구 방이동 111,"서울특별시 송파구 백제고분로48길 6, 1층 102호 (방이동)",209996.9781,445483.82,33,저가,37.51152406,127.1109703,0.180906174,1,2,1,34.24444444,5479269
462,컴포즈커피 엔터식스 천호점,20200811,영업/정상,,서울특별시 강동구 천호동 455 천호역,"서울특별시 강동구 천호대로 지하 997, 천호역 지1층 022호 (천호동)",210987.8088,448479.4882,19.59,저가,37.53850363,127.1222217,0.103439379,3,3,13,55.45555556,5284477
463,컴포즈커피 천호초교점,2021-10-01,영업/정상,,서울특별시 강동구 암사동 488-32,"서울특별시 강동구 구천면로 319, 1층 101호 (암사동)",211878.1701,449549.1995,42.9,저가,37.54813065,127.132313,0.495233626,0,0,0,46.33333333,5757638
464,컴포즈커피 둔촌동역점,20211109,영업/정상,,서울특별시 강동구 성내동 416-20 ,"서울특별시 강동구 풍성로 216, 104호 (성내동)",211915.8877,447415.1737,25,저가,37.52890279,127.1327054,0.752548683,1,1,1,91.44444444,1234073
465,메가엠지씨커피 올림픽공원북문점,20211130,영업/정상,,서울특별시 강동구 성내동 447-9 한국방재협회 ,"서울특별시 강동구 성안로 9, 한국방재협회 1층 103호 (성내동)",211333.1301,446968.1197,66,저가,37.52488217,127.1261057,0.749822533,0,1,3,55.45555556,4574000
466,빽다방 굽은다리역점,20200120,영업/정상,,서울특별시 강동구 명일동 346-1 삼익빌딩,"서울특별시 강동구 양재대로 1576, 삼익빌딩 1층 (명일동)",212605.5114,449330.0928,73,저가,37.54614691,127.14054,0.23195463,2,1,4,43.41111111,2762074
467,컴포즈커피 명일한영외고점,2021-12-23,영업/정상,,서울특별시 강동구 명일동 62,"서울특별시 강동구 구천면로 514, 1층 (명일동)",213665.7902,449652.2695,113.46,저가,37.54903466,127.1525438,0.563862995,0,0,0,55.45555556,1678370
468,메가엠지씨커피 여의도KBS점,2023-02-03,영업/정상,,서울특별시 영등포구 여의도동 17 여의도더샵아일랜드파크,"서울특별시 영등포구 의사당대로 38, 여의도더샵아일랜드파크 102동 116호 (여의도동)",192747.4193,447054.9883,47.39,저가,37.52570464,126.9158517,0.809236039,2,2,5,55.45555556,1740491
469,빽다방 명일역점,2015-11-09,영업/정상,,서울특별시 강동구 명일동 325-2,"서울특별시 강동구 구천면로 418, 1층 1호 (명일동)",212747.655,449808.8773,31.68,저가,37.55045876,127.1421567,0.092984137,3,2,2,47.12222222,5894190
470,메가엠지씨커피 봉화산역점,2022-03-04,영업/정상,,서울특별시 중랑구 신내동 648 디아뜨갤러리,"서울특별시 중랑구 신내로 225, 디아뜨갤러리 1층 146,147호 (신내동)",207990.4793,457183.6378,85.8,저가,37.6169574,127.088402,0.436865523,1,1,1,55.45555556,6092773
471,메가엠지씨커피 역삼역점,2023-02-07,영업/정상,,서울특별시 강남구 역삼동 644-9,"서울특별시 강남구 테헤란로25길 15, 지상1층 (역삼동)",203042.435,444377.61,36.73,저가,37.50160576,127.0323057,0.53306774,1,1,5,55.45555556,2582012
472,빽다방 강동역 헤르셔점,20150924,영업/정상,,서울특별시 강동구 천호동 447-17번지 ,"서울특별시 강동구 천호대로 1089, 지층 16호 (천호동)",211712.4293,448270.9577,56.61,저가,37.53661592,127.1304172,0.351387415,2,2,5,34.18888889,12954086
473,컴포즈커피 숙명여대점,2023-02-10,영업/정상,,서울특별시 용산구 청파동2가 55-7 숙명빌딩,"서울특별시 용산구 청파로47길 83, 숙명빌딩 1층 (청파동2가)",196902.7829,449189.8362,71.37,저가,37.54496306,126.962851,0.644857357,1,0,3,34.88888889,5112800
474,메가엠지씨커피 둔촌고사거리점,20220207,영업/정상,,서울특별시 강동구 둔촌동 51 ,"서울특별시 강동구 천호대로 1200, 1층 104호 (둔촌동)",212714.6961,448035.5862,63,저가,37.53448205,127.1417532,0.397247662,0,1,1,47.12222222,13373101
475,메가엠지씨커피 천호공원점,20120224,영업/정상,,서울특별시 강동구 천호동 332-2 (주)아이앤유앤아이빌딩 ,서울특별시 강동구 올림픽로 715 (주)아이앤유앤아이빌딩 1층 101호 (천호동),211023.9315,449231.807,44.16,저가,37.54528152,127.1226416,0.745494956,1,0,0,70.85555556,5234254
476,컴포즈커피 가산스카이밸리점,20190524,영업/정상,,서울특별시 금천구 가산동 371-57 가산 더스카이밸리 1차,"서울특별시 금천구 가산디지털1로 142, 가산 더스카이밸리 1차 1층 106호 (가산동)",189603.2229,441801.1351,55.7,저가,37.47833732,126.8803569,0.21214067,1,5,7,55.45555556,4504033
477,메가엠지씨커피 길동역점,2019-12-02,영업/정상,,서울특별시 강동구 길동 412-8 마루홈타운,"서울특별시 강동구 양재대로 1465, 마루홈타운 1층 105호 (길동)",212241.5992,448298.4594,56.8,저가,37.53685688,127.1364049,0.243057926,2,1,6,49.18888889,1022806
478,메가엠지씨커피 천호역점,2019-11-06,영업/정상,,서울특별시 강동구 천호동 456 신라빌딩,"서울특별시 강동구 천호대로 997, 신라빌딩 1층 107호 (천호동)",210825.1773,448573.815,69.26,저가,37.53935542,127.120383,0.277851364,1,4,9,60.1,5284477
479,빽다방 잠실레이크팰리스점,20221014,영업/정상,,서울특별시 송파구 삼전동 22-5,"서울특별시 송파구 석촌호수로 144, 1층 8호 (삼전동)",208152.5437,444979.3134,37.26,저가,37.50699648,127.0901031,0.357243329,1,0,3,46.33333333,8996784
480,컴포즈커피 목동사랑시장점,20220415,영업/정상,,서울특별시 양천구 목동 723-11,"서울특별시 양천구 목동중앙남로 61, 1층 103호 (목동)",188077.5615,448555.3269,33,저가,37.53917372,126.8629984,1.464738842,1,1,0,46.33333333,9555594
481,빽다방 가산그레이트점,20220415,영업/정상,,서울특별시 금천구 가산동 60-5 갑을그레이트밸리 105호,"서울특별시 금천구 디지털로9길 32, 갑을그레이트밸리 1층 105호 (가산동)",189982.3445,441928.6904,30.5,저가,37.47949081,126.8846413,0.213922977,3,2,7,31.98888889,4504033
482,빽다방 가산AP타워점,20220414,영업/정상,,서울특별시 금천구 가산동 673 1층 105-R호,"서울특별시 금천구 가산디지털1로 16, AP타워 1층 105-R호 (가산동)",190021.9569,440609.2095,52.58,저가,37.46760271,126.8851072,1.352177803,1,1,2,45.63333333,1706543
483,메가엠지씨커피 강동역점,20220411,영업/정상,,서울특별시 강동구 길동 445-1 강동역에스케이허브,"서울특별시 강동구 천호대로 1107, 1층 101-1호 (길동, 강동역에스케이허브)",211855.3435,448152.7256,39.6,저가,37.53554885,127.1320323,0.189157453,1,2,6,55.45555556,12954086
484,컴포즈커피 금호사거리점,2022-04-11,영업/정상,,서울특별시 성동구 금호동3가 210-2,"서울특별시 성동구 독서당로 327, 1층 (금호동3가)",202175.1179,449552.519,40.37,저가,37.54823381,127.022512,0.519802793,1,0,1,55.45555556,1797919
485,메가엠지씨커피 서울공덕초교점,20220408,영업/정상,,서울특별시 마포구 신공덕동 15-15,"서울특별시 마포구 만리재옛길 6, 1층 (신공덕동)",195902.8925,449176.9179,65.61,저가,37.5448427,126.9515367,0.049806551,1,2,2,55.45555556,147044
486,컴포즈커피 상봉역점,2022-04-08,영업/정상,,서울특별시 중랑구 상봉동 107-28,"서울특별시 중랑구 면목로 478-1, 1층 (상봉동)",207542.5027,454699.9333,49.5,저가,37.59458343,127.0833026,0.341483097,2,3,4,36.16666667,6645186
487,메가엠지씨커피 먹골중앙점,20220407,영업/정상,,서울특별시 중랑구 묵동 244-149 삼삼메디컬빌딩,"서울특별시 중랑구 동일로 887, 삼삼메디컬빌딩 1층 104호 (묵동)",206784.1377,456364.6175,58.98,저가,37.60958779,127.0747308,0.298919421,1,2,0,60.1,7616573
488,메가엠지씨커피 중곡사거리점,20220405,영업/정상,,서울특별시 광진구 중곡동 78-3,"서울특별시 광진구 영화사로 1, 1층 (중곡동)",207724.5946,450718.2819,115.7,저가,37.55870781,127.0853229,0.475953127,1,1,0,51.66666667,6838959
489,메가엠지씨커피광장점,20220404,영업/정상,,서울특별시 광진구 광장동 582 광장힐스테이트,"서울특별시 광진구 아차산로 537-17, 1층 10호 (광장동, 광장힐스테이트)",208729.1704,448995.8084,50,저가,37.54317961,127.096672,0.641644523,0,0,0,30.91111111,4434046
490,컴포즈커피 신촌자이엘라점,2022-05-16,영업/정상,,서울특별시 서대문구 대현동 104-36 신촌자이엘라 107호,"서울특별시 서대문구 신촌로 149, 신촌자이엘라 1층 107호 (대현동)",194849.1385,450512.1555,27.66,저가,37.55686771,126.9396033,0.072103764,3,1,7,36.55555556,4369452
491,메가엠지씨커피 강동성내점,20160714,영업/정상,,서울특별시 강동구 성내동 164-1 씨제이나인파크,"서울특별시 강동구 천호대로 1078, 1층 105호 (성내동, 씨제이나인파크)",211532.3537,448182.5885,53.94,저가,37.53582198,127.1283784,0.414543334,1,1,3,47.12222222,2630563
492,컴포즈커피 광장동워커힐점,20220630,영업/정상,,서울특별시 광진구 광장동 337-1,"서울특별시 광진구 아차산로 621, 1층 (광장동)",209405.8437,449586.6717,40,저가,37.54849662,127.1043364,0.377126308,0,0,1,28.6,1300162
493,컴포즈커피 길동중앙점,20220518,영업/정상,,서울특별시 강동구 길동 412-8 마루홈타운,"서울특별시 강동구 양재대로 1465, 마루홈타운 1층 102호 (길동)",212241.5992,448298.4594,44,저가,37.53685688,127.1364049,0.243057926,2,1,6,84.78888889,1022806
494,빽다방 길음롯데클라시아점,20220518,영업/정상,,서울특별시 성북구 길음동 508-16,"서울특별시 성북구 숭인로8길 80, 길음롯데캐슬클라시아 상가동 B1층 117호 (길음동)",202328.5425,456302.2964,58.78,저가,37.60904803,127.024269,0.795787971,2,1,2,41.93333333,788645
495,메가엠지씨커피 마포아트센터점,20220518,영업/정상,,서울특별시 마포구 대흥동 30-3 마포아트센터,"서울특별시 마포구 대흥로20길 28, 마포아트센터 1층 일부호 (대흥동)",195119.6147,449748.0311,48.72,저가,37.54998451,126.9426696,0.25207583,0,0,0,34.88888889,244397
496,빽다방 가좌역점,20220829,영업/정상,,서울특별시 서대문구 남가좌동 286-1 DMC금호리첸시아,"서울특별시 서대문구 수색로2길 39, 상가1층 106호 (남가좌동, DMC금호리첸시아)",192482.4165,452143.4915,49.95,저가,37.57154942,126.9128012,1.144977791,3,2,3,31.98888889,3350285
497,컴포즈커피 송파석촌점,20221017,영업/정상,,서울특별시 송파구 송파동 24-7,"서울특별시 송파구 백제고분로41길 18, 102호 (송파동)",209462.5135,445061.0066,50,저가,37.50772013,127.1049198,0.135510518,2,0,1,30.91111111,3731184
498,컴포즈커피 강북힘찬병원점,20221201,영업/정상,,서울특별시 도봉구 창동 650-46 강북힘찬병원,"서울특별시 도봉구 도봉로 446, 강북힘찬병원 1층 (창동)",202877.0443,460368.6744,85.96,저가,37.64568373,127.0304967,0.55136729,2,1,0,26.26666667,1570454
499,컴포즈커피 온수북부점,20220823,영업/정상,,서울특별시 구로구 온수동 116-5,"서울특별시 구로구 부일로1길 26-1, 1층 102호 (온수동)",184061.5594,443356.1478,46.2,저가,37.49226862,126.8176715,0.346257382,1,0,0,47.12222222,64192
500,메가엠지씨커피 화곡본동시장점,20150226,영업/정상,,서울특별시 강서구 화곡동 98-60 1층,"서울특별시 강서구 까치산로4길 3, 1층 (화곡동, 본동)",186156.5562,448925.226,88.11,저가,37.54247951,126.8412557,0.144366642,0,1,1,91.44444444,7337603
501,메가엠지씨커피 명동아르누보센텀점,20220823,영업/정상,,서울특별시 중구 을지로2가 199-40,"서울특별시 중구 명동7길 21, 1층 103호 (을지로2가)",198505.1408,451381.1131,46.06,저가,37.56471036,126.9809781,0.146137527,3,3,39,46.33333333,3421674
502,메가엠지씨커피 마포구청점,20220523,영업/정상,,서울특별시 마포구 성산동 592-8,"서울특별시 마포구 모래내로1길 9, 1층 102호 (성산동)",191409.6222,451377.5061,50.35,저가,37.56463854,126.9006666,0.213947867,1,1,2,84.78888889,38069
503,컴포즈커피 신정중앙점,20220523,영업/정상,,서울특별시 양천구 신정동 1026-5 1층,"서울특별시 양천구 은행정로 19, 1층 (신정동)",187522.4841,446588.593,68.78,저가,37.52144624,126.8567514,0.396914534,0,1,2,63.37777778,417046
504,컴포즈커피 어린이대공원후문점,20221018,영업/정상,,서울특별시 광진구 구의동 76-1 그랜드파크 오피스텔지하B101호,"서울특별시 광진구 천호대로 666, 그랜드파크 오피스텔 지하1층 B101호 (구의동)",207825.4659,449902.4017,54.4,저가,37.55135597,127.0864559,0.284448134,0,1,2,55.45555556,5283786
505,메가엠지씨커피 오금역점,20220524,영업/정상,,서울특별시 송파구 가락동 8 가락스타클래스,"서울특별시 송파구 오금로 306, 1층 113호 (가락동, 가락스타클래스)",211082.2052,444525.412,56.87,저가,37.50287654,127.1232305,0.433573001,0,0,0,46.53333333,1559753
506,빽다방 상계보람점,20220526,영업/정상,,서울특별시 노원구 상계동 456-129,"서울특별시 노원구 한글비석로52길 16, 1층 (상계동)",205798.74,462535.5861,79.68,저가,37.66519347,127.0636192,0.640808157,1,0,0,55.45555556,2990257
507,빽다방 천왕역점,2016-09-21,영업/정상,,서울특별시 구로구 오류동 306-4,"서울특별시 구로구 오리로 1149, 제1동동 지1층 105호 (오류동, 천왕1지구 씨-1블록 랑데르 )",185622.3449,442722.1596,39.2,저가,37.48658212,126.8353328,0.278525377,1,0,0,36.16666667,344199
508,메가엠지씨커피 강남로데오점,20220712,영업/정상,,서울특별시 강남구 역삼동 831-24 예미프레스티지,"서울특별시 강남구 강남대로78길 12, 예미프레스티지 지상1층 103호 (역삼동)",202614.8616,443629.0234,49.5,저가,37.49486228,127.0274677,0.251897945,2,1,11,26.58888889,31418667
509,메가엠지씨커피 면목동점,2022-06-30,영업/정상,,서울특별시 중랑구 면목동 446-5,"서울특별시 중랑구 용마산로 337, 1층 (면목동)",208163.4027,453302.5166,68.84,저가,37.58198767,127.0903177,0.20330714,0,0,0,41.93333333,6376123
510,컴포즈커피 가산에이스태세라점,2022-08-24,영업/정상,,서울특별시 금천구 가산동 345-25 에이스태세라타워 104(일부)호,"서울특별시 금천구 가산디지털2로 46, 에이스태세라타워 1층 104(일부)호 (가산동)",189551.8288,441176.2274,50.89,저가,37.47270632,126.8797848,0.79016034,1,2,0,28.6,2645419
511,컴포즈커피 농협중앙회본점,20220706,영업/정상,,서울특별시 중구 충정로1가 75-1 농협중앙회 중앙본부 사무실,"서울특별시 중구 새문안로 16, 지하2층 (충정로1가)",197143.1041,451569.7614,22.99,저가,37.56640675,126.965561,0.119774525,2,2,7,45.63333333,4909190
512,빽다방 이태원경리단길점,20221019,영업/정상,,서울특별시 용산구 이태원동 225-1 혜천상가,"서울특별시 용산구 회나무로13길 5, 혜천상가 1층 104호 (이태원동)",198983.12,448589.6035,20.77,저가,37.5395598,126.9863923,0.574325493,0,0,1,43.78888889,5247400
513,메가엠지씨커피 암사브라운스톤점,2022-03-28,영업/정상,,서울특별시 강동구 천호동 288-29 브라운스톤암사아파트,"서울특별시 강동구 상암로 54, 브라운스톤암사아파트 상가동 1층 6호 (천호동)",211334.3863,449613.8061,59.18,저가,37.54871955,127.1261605,0.322823004,1,1,1,47.12222222,5486109
514,메가엠지씨커피 잠실대교북단점,20221110,영업/정상,,서울특별시 광진구 자양동 679-31 1층,"서울특별시 광진구 자양로 49, 1층 (자양동)",207459.2549,447773.81,60,저가,37.53218056,127.0822902,0.88421652,1,1,0,55.45555556,2300304
515,메가엠지씨커피 강일리버파크점,20220602,영업/정상,,서울특별시 강동구 강일동 675-4 골드프라자,"서울특별시 강동구 아리수로93길 9, 골드프라자 102호 (강일동)",215346.5392,451478.4105,39.72,저가,37.56546161,127.1716016,0.959478922,1,2,0,32.56666667,248692
